[
  {
    "name": "Adamica",
    "type": "zbocze, stok",
    "latitude": 49.257777777777775,
    "longitude": 19.87638888888889
  },
  {
    "name": "Antałówka",
    "type": "wzgórze, wzniesienie",
    "latitude": 49.29194444444444,
    "longitude": 19.971666666666664
  },
  {
    "name": "Grań Apostołów",
    "type": "grań",
    "latitude": 49.195277777777775,
    "longitude": 20.08277777777778
  },
  {
    "name": "Augustynówka",
    "type": "zbocze, stok",
    "latitude": 49.32666666666667,
    "longitude": 20.14527777777778
  },
  {
    "name": "Awen w Ratuszu",
    "type": "jaskinia, grota",
    "latitude": 49.2425,
    "longitude": 19.91722222222222
  },
  {
    "name": "Awen z Korkiem Śnieżnym",
    "type": "jaskinia, grota",
    "latitude": 49.24527777777778,
    "longitude": 19.9175
  },
  {
    "name": "Babi Grzbiet",
    "type": "grań",
    "latitude": 49.20055555555556,
    "longitude": 19.858055555555556
  },
  {
    "name": "Babie Nogi",
    "type": "żleb",
    "latitude": 49.20166666666667,
    "longitude": 19.861666666666668
  },
  {
    "name": "Bachledzki Wierch",
    "type": "góra, szczyt",
    "latitude": 49.30555555555555,
    "longitude": 19.97472222222222
  },
  {
    "name": "Bacowski Żleb",
    "type": "żleb",
    "latitude": 49.24277777777778,
    "longitude": 20.043333333333337
  },
  {
    "name": "Bacuch",
    "type": "przełęcz",
    "latitude": 49.25361111111111,
    "longitude": 19.925
  },
  {
    "name": "Bałda",
    "type": "zbocze, stok",
    "latitude": 49.24194444444444,
    "longitude": 19.988333333333333
  },
  {
    "name": "Bańdzioch Kominiarski",
    "type": "jaskinia, grota",
    "latitude": 49.242222222222225,
    "longitude": 19.849166666666665
  },
  {
    "name": "Banie",
    "type": "góra, szczyt",
    "latitude": 49.263888888888886,
    "longitude": 19.833055555555557
  },
  {
    "name": "Banista Przełączka",
    "type": "przełęcz",
    "latitude": 49.19638888888888,
    "longitude": 19.839444444444442
  },
  {
    "name": "Baniste",
    "type": "zbocze, stok",
    "latitude": 49.228611111111114,
    "longitude": 19.825555555555557
  },
  {
    "name": "Banisty Żleb",
    "type": "żleb",
    "latitude": 49.22527777777778,
    "longitude": 19.82111111111111
  },
  {
    "name": "Barani Żleb",
    "type": "żleb",
    "latitude": 49.23722222222222,
    "longitude": 20.044444444444448
  },
  {
    "name": "Jaskinia Barania",
    "type": "jaskinia, grota",
    "latitude": 49.24111111111111,
    "longitude": 19.908055555555553
  },
  {
    "name": "Baraniarka",
    "type": "wąwóz",
    "latitude": 49.24444444444445,
    "longitude": 19.865555555555556
  },
  {
    "name": "Beskid",
    "type": "góra, szczyt",
    "latitude": 49.22833333333333,
    "longitude": 19.988055555555558
  },
  {
    "name": "Białczańska Przełęcz",
    "type": "przełęcz",
    "latitude": 49.19277777777778,
    "longitude": 20.084722222222222
  },
  {
    "name": "Białczańska Przełęcz Wyżnia",
    "type": "przełęcz",
    "latitude": 49.189166666666665,
    "longitude": 20.086388888888887
  },
  {
    "name": "Białczańska Kopka",
    "type": "góra, szczyt",
    "latitude": 49.19222222222222,
    "longitude": 20.084999999999997
  },
  {
    "name": "Białe Skałki",
    "type": "zbocze, stok",
    "latitude": 49.219166666666666,
    "longitude": 19.798333333333336
  },
  {
    "name": "Dolina Białego",
    "type": "dolina",
    "latitude": 49.27361111111111,
    "longitude": 19.95611111111111
  },
  {
    "name": "Białe",
    "type": "hala",
    "latitude": 49.26305555555555,
    "longitude": 19.947777777777777
  },
  {
    "name": "Białka",
    "type": "rzeka",
    "latitude": 49.22277777777778,
    "longitude": 20.101666666666667
  },
  {
    "name": "Dolina Białki",
    "type": "region naturalny",
    "latitude": 49.2575,
    "longitude": 20.109722222222224
  },
  {
    "name": "Biały Dunajec",
    "type": "rzeka",
    "latitude": 49.33777777777778,
    "longitude": 20.00138888888889
  },
  {
    "name": "Biały Żleb",
    "type": "żleb",
    "latitude": 49.22527777777778,
    "longitude": 20.06277777777778
  },
  {
    "name": "Biały Żlebek",
    "type": "żleb",
    "latitude": 49.20638888888889,
    "longitude": 20.068055555555556
  },
  {
    "name": "Bieńkowski Wierch",
    "type": "wzgórze, wzniesienie",
    "latitude": 49.33888888888889,
    "longitude": 20.084722222222222
  },
  {
    "name": "Bliźniacza Studnia",
    "type": "jaskinia, grota",
    "latitude": 49.24055555555556,
    "longitude": 19.925555555555558
  },
  {
    "name": "Bliźniaczy Komin",
    "type": "jaskinia, grota",
    "latitude": 49.24194444444444,
    "longitude": 19.905277777777776
  },
  {
    "name": "Jaskinia Błotna",
    "type": "jaskinia, grota",
    "latitude": 49.2475,
    "longitude": 19.91361111111111
  },
  {
    "name": "Błyszcz",
    "type": "góra, szczyt",
    "latitude": 49.19277777777778,
    "longitude": 19.84111111111111
  },
  {
    "name": "Bobrowiec",
    "type": "góra, szczyt",
    "latitude": 49.24611111111111,
    "longitude": 19.78611111111111
  },
  {
    "name": "Bobrowiecka Przełęcz",
    "type": "przełęcz",
    "latitude": 49.242222222222225,
    "longitude": 19.77638888888889
  },
  {
    "name": "Bobrowiecki Upłaz",
    "type": "zbocze, stok",
    "latitude": 49.24388888888889,
    "longitude": 19.781388888888888
  },
  {
    "name": "Bobrowiecki Żleb",
    "type": "żleb",
    "latitude": 49.23861111111111,
    "longitude": 19.78222222222222
  },
  {
    "name": "Boczań",
    "type": "góra, szczyt",
    "latitude": 49.264722222222225,
    "longitude": 19.987222222222222
  },
  {
    "name": "Boczań Kasprowy",
    "type": "zbocze, stok",
    "latitude": 49.25611111111111,
    "longitude": 19.981666666666666
  },
  {
    "name": "Broniarski Żleb",
    "type": "żleb",
    "latitude": 49.282222222222224,
    "longitude": 20.059444444444445
  },
  {
    "name": "Buczynowa Dolinka",
    "type": "dolina",
    "latitude": 49.22166666666667,
    "longitude": 20.040833333333335
  },
  {
    "name": "Buczynowa Koleba",
    "type": "jaskinia, grota",
    "latitude": 49.221944444444446,
    "longitude": 20.04638888888889
  },
  {
    "name": "Buczynowa Przełęcz",
    "type": "przełęcz",
    "latitude": 49.22666666666667,
    "longitude": 20.041666666666668
  },
  {
    "name": "Buczynowa Siklawa",
    "type": "wodospad",
    "latitude": 49.220555555555556,
    "longitude": 20.04638888888889
  },
  {
    "name": "Buczynowa Strażnica",
    "type": "góra, szczyt",
    "latitude": 49.22027777777778,
    "longitude": 20.033611111111114
  },
  {
    "name": "Buczynowa Turniczka",
    "type": "góra, szczyt",
    "latitude": 49.22638888888889,
    "longitude": 20.040000000000003
  },
  {
    "name": "Budzów Wierch",
    "type": "wzgórze, wzniesienie",
    "latitude": 49.312777777777775,
    "longitude": 20.034166666666668
  },
  {
    "name": "Bula pod Rysami",
    "type": "góra, szczyt",
    "latitude": 49.18194444444444,
    "longitude": 20.080833333333334
  },
  {
    "name": "Butorowy Wierch",
    "type": "góra, szczyt",
    "latitude": 49.301944444444445,
    "longitude": 19.906388888888888
  },
  {
    "name": "Jaskinia Bystra",
    "type": "jaskinia, grota",
    "latitude": 49.255,
    "longitude": 19.96722222222222
  },
  {
    "name": "Dolina Bystrej",
    "type": "dolina",
    "latitude": 49.26861111111111,
    "longitude": 19.980833333333333
  },
  {
    "name": "Capik",
    "type": "grań",
    "latitude": 49.24055555555556,
    "longitude": 19.830277777777777
  },
  {
    "name": "Cesarka",
    "type": "żleb",
    "latitude": 49.23444444444444,
    "longitude": 20.045833333333334
  },
  {
    "name": "Chłopek",
    "type": "góra, szczyt",
    "latitude": 49.183611111111105,
    "longitude": 20.06638888888889
  },
  {
    "name": "Dolina Chochołowska",
    "type": "dolina",
    "latitude": 49.25111111111111,
    "longitude": 19.814444444444444
  },
  {
    "name": "Chuda Mnichowa Studnia",
    "type": "jaskinia, grota",
    "latitude": 49.245555555555555,
    "longitude": 19.92888888888889
  },
  {
    "name": "Chuda Przełączka",
    "type": "przełęcz",
    "latitude": 49.238055555555555,
    "longitude": 19.895555555555553
  },
  {
    "name": "Chuda Turnia",
    "type": "góra, szczyt",
    "latitude": 49.238055555555555,
    "longitude": 19.894444444444446
  },
  {
    "name": "Jaskinia Ciasna",
    "type": "jaskinia, grota",
    "latitude": 49.235,
    "longitude": 19.87361111111111
  },
  {
    "name": "Cicha Woda",
    "type": "rzeka",
    "latitude": 49.29972222222222,
    "longitude": 19.947222222222223
  },
  {
    "name": "Cielęce Tańce",
    "type": "zbocze, stok",
    "latitude": 49.20888888888889,
    "longitude": 19.815555555555555
  },
  {
    "name": "Ciemniaczek",
    "type": "wąwóz",
    "latitude": 49.26277777777778,
    "longitude": 19.81222222222222
  },
  {
    "name": "Ciemniak",
    "type": "góra, szczyt",
    "latitude": 49.23111111111111,
    "longitude": 19.903333333333332
  },
  {
    "name": "Ciemnisty Żleb",
    "type": "żleb",
    "latitude": 49.22638888888889,
    "longitude": 20.068055555555556
  },
  {
    "name": "Ciemnosmreczyńska Przełączka",
    "type": "przełęcz",
    "latitude": 49.18944444444444,
    "longitude": 20.049444444444447
  },
  {
    "name": "Ciemnosmreczyńska Turnia",
    "type": "góra, szczyt",
    "latitude": 49.189722222222215,
    "longitude": 20.048611111111114
  },
  {
    "name": "Ciemny Żleb",
    "type": "żleb",
    "latitude": 49.249722222222225,
    "longitude": 19.794444444444448
  },
  {
    "name": "Ciężka Przełączka",
    "type": "przełęcz",
    "latitude": 49.18666666666666,
    "longitude": 20.087777777777777
  },
  {
    "name": "Cubryna",
    "type": "góra, szczyt",
    "latitude": 49.18805555555555,
    "longitude": 20.053611111111113
  },
  {
    "name": "Cyrla nad Białką",
    "type": "wzgórze, wzniesienie",
    "latitude": 49.305277777777775,
    "longitude": 20.116666666666667
  },
  {
    "name": "Czarna Ławka",
    "type": "przełęcz",
    "latitude": 49.19972222222222,
    "longitude": 20.029444444444444
  },
  {
    "name": "Czarna Pasza",
    "type": "zbocze, stok",
    "latitude": 49.239444444444445,
    "longitude": 20.01527777777778
  },
  {
    "name": "Czarna Turnia",
    "type": "góra, szczyt",
    "latitude": 49.261944444444445,
    "longitude": 19.919722222222223
  },
  {
    "name": "Jaskinia Czarna",
    "type": "jaskinia, grota",
    "latitude": 49.24444444444445,
    "longitude": 19.871944444444445
  },
  {
    "name": "Czarnostawiańska Przełęcz",
    "type": "przełęcz",
    "latitude": 49.18194444444444,
    "longitude": 20.068055555555556
  },
  {
    "name": "Czarnostawiańska Siklawa",
    "type": "wodospad",
    "latitude": 49.19222222222222,
    "longitude": 20.071666666666665
  },
  {
    "name": "Czarny Dunajec",
    "type": "rzeka",
    "latitude": 49.29194444444444,
    "longitude": 19.851666666666667
  },
  {
    "name": "Czarny Staw Polski",
    "type": "jezioro",
    "latitude": 49.20444444444445,
    "longitude": 20.025555555555556
  },
  {
    "name": "Czarny Staw",
    "type": "jezioro",
    "latitude": 49.23083333333334,
    "longitude": 20.017777777777777
  },
  {
    "name": "Czarny Staw pod Rysami",
    "type": "jezioro",
    "latitude": 49.18833333333333,
    "longitude": 20.07638888888889
  },
  {
    "name": "Czarny Żleb",
    "type": "żleb",
    "latitude": 49.238055555555555,
    "longitude": 19.848333333333333
  },
  {
    "name": "Czerwona Glina",
    "type": "zbocze, stok",
    "latitude": 49.26416666666667,
    "longitude": 19.989722222222223
  },
  {
    "name": "Czerwona Przełęcz",
    "type": "przełęcz",
    "latitude": 49.26277777777778,
    "longitude": 19.9425
  },
  {
    "name": "Czerwone Brzeżki",
    "type": "zbocze, stok",
    "latitude": 49.27027777777778,
    "longitude": 20.051666666666666
  },
  {
    "name": "Czerwone Stawki",
    "type": "jeziora",
    "latitude": 49.22777777777778,
    "longitude": 20.004722222222224
  },
  {
    "name": "Czerwone Żlebki",
    "type": "żleb",
    "latitude": 49.22666666666667,
    "longitude": 19.900555555555552
  },
  {
    "name": "Czerwony Grzbiet",
    "type": "grań",
    "latitude": 49.24,
    "longitude": 19.916944444444447
  },
  {
    "name": "Czerwony Staw",
    "type": "jezioro",
    "latitude": 49.24,
    "longitude": 20.035555555555558
  },
  {
    "name": "Czerwony Upłaz",
    "type": "zbocze, stok",
    "latitude": 49.23861111111111,
    "longitude": 19.919444444444444
  },
  {
    "name": "Czerwony Wierch",
    "type": "góra, szczyt",
    "latitude": 49.21,
    "longitude": 19.78111111111111
  },
  {
    "name": "Czerwony Żleb",
    "type": "żleb",
    "latitude": 49.22555555555556,
    "longitude": 19.895555555555553
  },
  {
    "name": "Czółka",
    "type": "zbocze, stok",
    "latitude": 49.26361111111111,
    "longitude": 20.016666666666666
  },
  {
    "name": "Czubik",
    "type": "góra, szczyt",
    "latitude": 49.21277777777778,
    "longitude": 19.808055555555555
  },
  {
    "name": "Diabełek",
    "type": "przełęcz",
    "latitude": 49.257222222222225,
    "longitude": 20.003055555555555
  },
  {
    "name": "Diabliniec",
    "type": "wzgórze, wzniesienie",
    "latitude": 49.25666666666667,
    "longitude": 19.84472222222222
  },
  {
    "name": "Długa Polana",
    "type": "hala",
    "latitude": 49.30166666666666,
    "longitude": 19.858055555555556
  },
  {
    "name": "Długa Dolina",
    "type": "dolina",
    "latitude": 49.25944444444445,
    "longitude": 19.802222222222223
  },
  {
    "name": "Długi Giewont",
    "type": "grań",
    "latitude": 49.25333333333333,
    "longitude": 19.941666666666666
  },
  {
    "name": "Długi Staw",
    "type": "jezioro",
    "latitude": 49.22694444444445,
    "longitude": 20.00888888888889
  },
  {
    "name": "Długi Upłaz",
    "type": "grań",
    "latitude": 49.22027777777778,
    "longitude": 19.764444444444443
  },
  {
    "name": "Długi Żleb",
    "type": "żleb",
    "latitude": 49.257222222222225,
    "longitude": 19.996111111111112
  },
  {
    "name": "Dolina za Mnichem",
    "type": "dolina",
    "latitude": 49.195277777777775,
    "longitude": 20.049722222222226
  },
  {
    "name": "Dolinczańska Wolarnia",
    "type": "zbocze, stok",
    "latitude": 49.21138888888889,
    "longitude": 19.86888888888889
  },
  {
    "name": "Dolinczański Grzbiet",
    "type": "grań",
    "latitude": 49.20416666666667,
    "longitude": 19.865555555555556
  },
  {
    "name": "Dolinczański Upłaz",
    "type": "zbocze, stok",
    "latitude": 49.203611111111115,
    "longitude": 19.87138888888889
  },
  {
    "name": "Dolinczański Żleb",
    "type": "żleb",
    "latitude": 49.23305555555556,
    "longitude": 19.77638888888889
  },
  {
    "name": "Dolinka",
    "type": "dolina",
    "latitude": 49.208333333333336,
    "longitude": 19.868333333333332
  },
  {
    "name": "Pusta Dolinka",
    "type": "dolina",
    "latitude": 49.216944444444444,
    "longitude": 20.024166666666666
  },
  {
    "name": "Dubrawiska",
    "type": "zbocze, stok",
    "latitude": 49.24305555555556,
    "longitude": 20.020555555555553
  },
  {
    "name": "Dudniąca Ziem",
    "type": "uroczysko",
    "latitude": 49.227222222222224,
    "longitude": 20.078888888888887
  },
  {
    "name": "Dudnica",
    "type": "jaskinia, grota",
    "latitude": 49.25527777777778,
    "longitude": 19.967499999999998
  },
  {
    "name": "Dudowa Kotlina",
    "type": "kotlina",
    "latitude": 49.21222222222222,
    "longitude": 19.81277777777778
  },
  {
    "name": "Dolina Dudowa",
    "type": "dolina",
    "latitude": 49.25194444444445,
    "longitude": 19.820833333333333
  },
  {
    "name": "Dudowe Stawki",
    "type": "jeziora",
    "latitude": 49.211666666666666,
    "longitude": 19.81277777777778
  },
  {
    "name": "Dudowa Studnia",
    "type": "jaskinia, grota",
    "latitude": 49.24527777777778,
    "longitude": 19.83222222222222
  },
  {
    "name": "Dwoista Siklawa",
    "type": "wodospad",
    "latitude": 49.19611111111111,
    "longitude": 20.065
  },
  {
    "name": "Dwoisty Staw",
    "type": "jezioro",
    "latitude": 49.23083333333334,
    "longitude": 20.002777777777776
  },
  {
    "name": "Dwoisty Żleb",
    "type": "żleb",
    "latitude": 49.20055555555556,
    "longitude": 20.080277777777777
  },
  {
    "name": "Dwoiśniak",
    "type": "jezioro",
    "latitude": 49.23777777777778,
    "longitude": 19.997222222222224
  },
  {
    "name": "Dwojaki",
    "type": "żleb",
    "latitude": 49.220555555555556,
    "longitude": 19.8075
  },
  {
    "name": "Dwojakowy Żleb",
    "type": "żleb",
    "latitude": 49.221944444444446,
    "longitude": 19.81222222222222
  },
  {
    "name": "Dziad",
    "type": "góra, szczyt",
    "latitude": 49.23916666666667,
    "longitude": 20.072777777777777
  },
  {
    "name": "Dziadowa Jama",
    "type": "wąwóz",
    "latitude": 49.24611111111111,
    "longitude": 20.090277777777775
  },
  {
    "name": "Dziadowiec",
    "type": "zbocze, stok",
    "latitude": 49.26,
    "longitude": 19.948333333333334
  },
  {
    "name": "Dziedzicówka",
    "type": "hala",
    "latitude": 49.31055555555555,
    "longitude": 19.855555555555558
  },
  {
    "name": "Dziura",
    "type": "jaskinia, grota",
    "latitude": 49.27194444444444,
    "longitude": 19.942777777777778
  },
  {
    "name": "Dziura Małołącka Mała",
    "type": "jaskinia, grota",
    "latitude": 49.23972222222222,
    "longitude": 19.922222222222224
  },
  {
    "name": "Dziura nad Doliną Strążyską",
    "type": "jaskinia, grota",
    "latitude": 49.25472222222222,
    "longitude": 19.93611111111111
  },
  {
    "name": "Dziura nad Korytem",
    "type": "jaskinia, grota",
    "latitude": 49.24777777777778,
    "longitude": 19.911388888888887
  },
  {
    "name": "Dziura nad Potokiem",
    "type": "jaskinia, grota",
    "latitude": 49.25,
    "longitude": 19.81527777777778
  },
  {
    "name": "Dziura nad Studnią",
    "type": "jaskinia, grota",
    "latitude": 49.242222222222225,
    "longitude": 19.89638888888889
  },
  {
    "name": "Dziura pod Nosalem",
    "type": "jaskinia, grota",
    "latitude": 49.27861111111111,
    "longitude": 19.983055555555556
  },
  {
    "name": "Dziura w Kończystej Turni",
    "type": "jaskinia, grota",
    "latitude": 49.26444444444444,
    "longitude": 19.878333333333334
  },
  {
    "name": "Dziura w Litworowej",
    "type": "jaskinia, grota",
    "latitude": 49.24055555555556,
    "longitude": 19.91361111111111
  },
  {
    "name": "Dziura w Ścianie",
    "type": "jaskinia, grota",
    "latitude": 49.235,
    "longitude": 19.864722222222223
  },
  {
    "name": "Dziura w Wantach",
    "type": "jaskinia, grota",
    "latitude": 49.24444444444445,
    "longitude": 19.9175
  },
  {
    "name": "Dziura w Zawiesistej",
    "type": "jaskinia, grota",
    "latitude": 49.24333333333333,
    "longitude": 19.806944444444444
  },
  {
    "name": "Dziura za Głazami",
    "type": "jaskinia, grota",
    "latitude": 49.255833333333335,
    "longitude": 19.96222222222222
  },
  {
    "name": "Dziurawa Przełęcz",
    "type": "przełęcz",
    "latitude": 49.205555555555556,
    "longitude": 19.773333333333333
  },
  {
    "name": "Dziurawe",
    "type": "zbocze, stok",
    "latitude": 49.24305555555556,
    "longitude": 19.896666666666665
  },
  {
    "name": "Dziurawiec",
    "type": "jaskinia, grota",
    "latitude": 49.25333333333333,
    "longitude": 19.865833333333335
  },
  {
    "name": "Dziurawy Kopiniec",
    "type": "góra, szczyt",
    "latitude": 49.19472222222222,
    "longitude": 20.041111111111114
  },
  {
    "name": "Dzwonnica",
    "type": "jaskinia, grota",
    "latitude": 49.23638888888889,
    "longitude": 19.864444444444445
  },
  {
    "name": "Jaskinia Filipczańska Niżnia",
    "type": "jaskinia, grota",
    "latitude": 49.27388888888889,
    "longitude": 20.076944444444443
  },
  {
    "name": "Grota Filipczańska Wyżnia",
    "type": "jaskinia, grota",
    "latitude": 49.27388888888889,
    "longitude": 20.0775
  },
  {
    "name": "Filipczański Wierch",
    "type": "góra, szczyt",
    "latitude": 49.274166666666666,
    "longitude": 20.076666666666668
  },
  {
    "name": "Filipka",
    "type": "dolina",
    "latitude": 49.27388888888889,
    "longitude": 20.083888888888886
  },
  {
    "name": "Furkaska",
    "type": "góra, szczyt",
    "latitude": 49.26166666666666,
    "longitude": 19.78888888888889
  },
  {
    "name": "Furmanów Wierch",
    "type": "góra, szczyt",
    "latitude": 49.32166666666667,
    "longitude": 19.952222222222222
  },
  {
    "name": "Gaisty Żleb",
    "type": "żleb",
    "latitude": 49.228611111111114,
    "longitude": 20.07111111111111
  },
  {
    "name": "Galicowa",
    "type": "góra, szczyt",
    "latitude": 49.336666666666666,
    "longitude": 20.028055555555554
  },
  {
    "name": "Gawlaków Wierch",
    "type": "góra, szczyt",
    "latitude": 49.30333333333333,
    "longitude": 20.008055555555554
  },
  {
    "name": "Gawra",
    "type": "jaskinia, grota",
    "latitude": 49.23722222222222,
    "longitude": 19.87527777777778
  },
  {
    "name": "Gąsienicowa Przełączka",
    "type": "przełęcz",
    "latitude": 49.21944444444445,
    "longitude": 20.010833333333334
  },
  {
    "name": "Gąsienicowa Turnia",
    "type": "góra, szczyt",
    "latitude": 49.219166666666666,
    "longitude": 20.01222222222222
  },
  {
    "name": "Dolina Gąsienicowa",
    "type": "dolina",
    "latitude": 49.24166666666667,
    "longitude": 20.0125
  },
  {
    "name": "Hala Gąsienicowa",
    "type": "hala",
    "latitude": 49.245,
    "longitude": 20.006666666666668
  },
  {
    "name": "Gąsienicowe Stawy",
    "type": "jezioro",
    "latitude": 49.22805555555556,
    "longitude": 20.009444444444444
  },
  {
    "name": "Gąsienicowy Wierch",
    "type": "góra, szczyt",
    "latitude": 49.28861111111111,
    "longitude": 19.935833333333335
  },
  {
    "name": "Jaskinia Geologiczna",
    "type": "jaskinia, grota",
    "latitude": 49.23694444444445,
    "longitude": 19.8725
  },
  {
    "name": "Gęsia Szyja",
    "type": "góra, szczyt",
    "latitude": 49.259166666666665,
    "longitude": 20.076944444444443
  },
  {
    "name": "Giewont",
    "type": "góra, szczyt",
    "latitude": 49.25083333333333,
    "longitude": 19.933888888888887
  },
  {
    "name": "Gładka Kotelnica",
    "type": "góra, szczyt",
    "latitude": 49.2025,
    "longitude": 20.019444444444442
  },
  {
    "name": "Gładka Ławka",
    "type": "przełęcz",
    "latitude": 49.203611111111115,
    "longitude": 20.018055555555556
  },
  {
    "name": "Gładka Przełęcz",
    "type": "przełęcz",
    "latitude": 49.20861111111111,
    "longitude": 20.01222222222222
  },
  {
    "name": "Gładka Ubocz",
    "type": "zbocze, stok",
    "latitude": 49.20416666666667,
    "longitude": 19.81527777777778
  },
  {
    "name": "Gładki Upłaz",
    "type": "zbocze, stok",
    "latitude": 49.221944444444446,
    "longitude": 19.77138888888889
  },
  {
    "name": "Gładki Wierch",
    "type": "góra, szczyt",
    "latitude": 49.20666666666667,
    "longitude": 20.013333333333332
  },
  {
    "name": "Gładki Żleb",
    "type": "żleb",
    "latitude": 49.23555555555556,
    "longitude": 19.853611111111114
  },
  {
    "name": "Gładkie",
    "type": "zbocze, stok",
    "latitude": 49.25388888888889,
    "longitude": 20.055833333333332
  },
  {
    "name": "Gładkie Kopki",
    "type": "góra, szczyt",
    "latitude": 49.206944444444446,
    "longitude": 20.017777777777777
  },
  {
    "name": "Gładkie Stawiańskie",
    "type": "zbocze, stok",
    "latitude": 49.238055555555555,
    "longitude": 19.991666666666667
  },
  {
    "name": "Gładkie Upłaziańskie",
    "type": "zbocze, stok",
    "latitude": 49.24138888888889,
    "longitude": 19.8875
  },
  {
    "name": "Głazisty Żleb",
    "type": "żleb",
    "latitude": 49.248333333333335,
    "longitude": 19.92361111111111
  },
  {
    "name": "Głazów Żleb",
    "type": "żleb",
    "latitude": 49.24666666666667,
    "longitude": 20.045555555555556
  },
  {
    "name": "Głaźna Czuba",
    "type": "góra, szczyt",
    "latitude": 49.19277777777778,
    "longitude": 20.04388888888889
  },
  {
    "name": "Głaźne Wrótka",
    "type": "przełęcz",
    "latitude": 49.19305555555555,
    "longitude": 20.0425
  },
  {
    "name": "Głęboki Żleb",
    "type": "żleb",
    "latitude": 49.24111111111111,
    "longitude": 20.089166666666664
  },
  {
    "name": "Głębowiec",
    "type": "dolina",
    "latitude": 49.25138888888889,
    "longitude": 19.803333333333335
  },
  {
    "name": "Goły Wierch",
    "type": "góra, szczyt",
    "latitude": 49.26777777777777,
    "longitude": 20.096944444444443
  },
  {
    "name": "Goryczkowa Czuba",
    "type": "góra, szczyt",
    "latitude": 49.2325,
    "longitude": 19.956944444444442
  },
  {
    "name": "Nad Zakosy",
    "type": "przełęcz",
    "latitude": 49.23027777777778,
    "longitude": 19.96972222222222
  },
  {
    "name": "Goryczkowa Przełęcz Świńska",
    "type": "przełęcz",
    "latitude": 49.231388888888894,
    "longitude": 19.961666666666666
  },
  {
    "name": "Dolina Goryczkowa",
    "type": "dolina",
    "latitude": 49.24777777777778,
    "longitude": 19.970277777777778
  },
  {
    "name": "Hala Goryczkowa",
    "type": "hala",
    "latitude": 49.240833333333335,
    "longitude": 19.968888888888888
  },
  {
    "name": "Jaskinia Goryczkowa",
    "type": "jaskinia, grota",
    "latitude": 49.25222222222222,
    "longitude": 19.972499999999997
  },
  {
    "name": "Goryczkowe Wywierzysko",
    "type": "źródło",
    "latitude": 49.25472222222222,
    "longitude": 19.972777777777775
  },
  {
    "name": "Górka",
    "type": "wzgórze, wzniesienie",
    "latitude": 49.29611111111111,
    "longitude": 19.941111111111113
  },
  {
    "name": "Górków Wierch",
    "type": "wzgórze, wzniesienie",
    "latitude": 49.30888888888889,
    "longitude": 20.1675
  },
  {
    "name": "Granacka Przełęcz",
    "type": "przełęcz",
    "latitude": 49.22694444444445,
    "longitude": 20.03388888888889
  },
  {
    "name": "Granaty",
    "type": "masyw",
    "latitude": 49.225833333333334,
    "longitude": 20.032777777777778
  },
  {
    "name": "Graniczniak",
    "type": "żleb",
    "latitude": 49.217777777777776,
    "longitude": 19.825833333333332
  },
  {
    "name": "Grapa",
    "type": "zbocze, stok",
    "latitude": 49.33916666666667,
    "longitude": 19.915277777777778
  },
  {
    "name": "Grapy",
    "type": "wąwóz",
    "latitude": 49.33027777777778,
    "longitude": 19.878888888888888
  },
  {
    "name": "Groby",
    "type": "jaskinia, grota",
    "latitude": 49.236666666666665,
    "longitude": 19.86527777777778
  },
  {
    "name": "Groniczek",
    "type": "zbocze, stok",
    "latitude": 49.308055555555555,
    "longitude": 20.161944444444444
  },
  {
    "name": "Groników Stawki",
    "type": "jezioro",
    "latitude": 49.31111111111111,
    "longitude": 19.88861111111111
  },
  {
    "name": "Groń",
    "type": "góra, szczyt",
    "latitude": 49.303888888888885,
    "longitude": 20.06388888888889
  },
  {
    "name": "Grapa Witowa",
    "type": "zbocze, stok",
    "latitude": 49.336111111111116,
    "longitude": 19.814722222222223
  },
  {
    "name": "Gruszków Wierch",
    "type": "góra, szczyt",
    "latitude": 49.32361111111111,
    "longitude": 19.90222222222222
  },
  {
    "name": "Grzesie",
    "type": "zbocze, stok",
    "latitude": 49.242222222222225,
    "longitude": 19.871111111111112
  },
  {
    "name": "Grześ",
    "type": "góra, szczyt",
    "latitude": 49.236666666666665,
    "longitude": 19.766944444444444
  },
  {
    "name": "Grześkówki",
    "type": "góra, szczyt",
    "latitude": 49.276944444444446,
    "longitude": 19.939444444444444
  },
  {
    "name": "Grzędy",
    "type": "zbocze, stok",
    "latitude": 49.22694444444445,
    "longitude": 19.995555555555555
  },
  {
    "name": "Grzybowiec",
    "type": "góra, szczyt",
    "latitude": 49.256388888888885,
    "longitude": 19.91722222222222
  },
  {
    "name": "Dolina Grzybowiecka",
    "type": "dolina",
    "latitude": 49.26166666666666,
    "longitude": 19.925555555555558
  },
  {
    "name": "Gubalec",
    "type": "góra, szczyt",
    "latitude": 49.23166666666667,
    "longitude": 19.871944444444445
  },
  {
    "name": "Pogórze Gubałowskie",
    "type": "region naturalny",
    "latitude": 49.30361111111111,
    "longitude": 19.92
  },
  {
    "name": "Gubałówka",
    "type": "góra, szczyt",
    "latitude": 49.30361111111111,
    "longitude": 19.919722222222223
  },
  {
    "name": "Hala za Mnichem",
    "type": "hala",
    "latitude": 49.196666666666665,
    "longitude": 20.05027777777778
  },
  {
    "name": "Herbik",
    "type": "góra, szczyt",
    "latitude": 49.25666666666667,
    "longitude": 20.015
  },
  {
    "name": "Hińczowa Przełęcz",
    "type": "przełęcz",
    "latitude": 49.187777777777775,
    "longitude": 20.05527777777778
  },
  {
    "name": "Hińczowa Turnia",
    "type": "góra, szczyt",
    "latitude": 49.18055555555555,
    "longitude": 20.070833333333333
  },
  {
    "name": "Hińczowe Czuby",
    "type": "grań",
    "latitude": 49.18055555555555,
    "longitude": 20.07
  },
  {
    "name": "Hlińska Przełęcz",
    "type": "przełęcz",
    "latitude": 49.202222222222225,
    "longitude": 19.87638888888889
  },
  {
    "name": "Hrubas",
    "type": "góra, szczyt",
    "latitude": 49.24527777777778,
    "longitude": 19.800555555555555
  },
  {
    "name": "Hruby Regiel",
    "type": "góra, szczyt",
    "latitude": 49.26777777777777,
    "longitude": 19.889444444444443
  },
  {
    "name": "Dolina Huciańska",
    "type": "dolina",
    "latitude": 49.25833333333333,
    "longitude": 19.82111111111111
  },
  {
    "name": "Huciańskie Banie",
    "type": "uroczysko",
    "latitude": 49.260555555555555,
    "longitude": 19.823333333333334
  },
  {
    "name": "Huciańskie Siodło",
    "type": "przełęcz",
    "latitude": 49.26027777777778,
    "longitude": 19.83277777777778
  },
  {
    "name": "Hurchoci Wierch",
    "type": "wzgórze, wzniesienie",
    "latitude": 49.30083333333333,
    "longitude": 19.82111111111111
  },
  {
    "name": "Igła",
    "type": "góra, szczyt",
    "latitude": 49.26444444444444,
    "longitude": 19.950277777777778
  },
  {
    "name": "Iwaniacka Przełęcz",
    "type": "przełęcz",
    "latitude": 49.23222222222223,
    "longitude": 19.83611111111111
  },
  {
    "name": "Dolina Iwaniacka",
    "type": "dolina",
    "latitude": 49.23527777777778,
    "longitude": 19.824444444444445
  },
  {
    "name": "Iwanówka",
    "type": "hala",
    "latitude": 49.237500000000004,
    "longitude": 19.825555555555557
  },
  {
    "name": "Iwański Wierch",
    "type": "góra, szczyt",
    "latitude": 49.316111111111105,
    "longitude": 19.860277777777778
  },
  {
    "name": "Jaferowy Grzbiet",
    "type": "góra, szczyt",
    "latitude": 49.21611111111111,
    "longitude": 19.865555555555556
  },
  {
    "name": "Jaferowy Żleb",
    "type": "żleb",
    "latitude": 49.21638888888889,
    "longitude": 19.870555555555555
  },
  {
    "name": "Jaskinia Jagnięca",
    "type": "jaskinia, grota",
    "latitude": 49.23694444444445,
    "longitude": 19.87527777777778
  },
  {
    "name": "Jałowiarczysko",
    "type": "zbocze, stok",
    "latitude": 49.25138888888889,
    "longitude": 19.988333333333333
  },
  {
    "name": "Jambrowy Wierch",
    "type": "góra, szczyt",
    "latitude": 49.24527777777778,
    "longitude": 19.778333333333332
  },
  {
    "name": "Jamska Czuba",
    "type": "góra, szczyt",
    "latitude": 49.256388888888885,
    "longitude": 19.819166666666668
  },
  {
    "name": "Janoszów Wierch",
    "type": "góra, szczyt",
    "latitude": 49.308055555555555,
    "longitude": 20.00777777777778
  },
  {
    "name": "Jarząbcza Przełęcz",
    "type": "przełęcz",
    "latitude": 49.20472222222222,
    "longitude": 19.80388888888889
  },
  {
    "name": "Dolina Jarzębcza",
    "type": "dolina",
    "latitude": 49.219166666666666,
    "longitude": 19.7875
  },
  {
    "name": "Hala Jarząbcza",
    "type": "hala",
    "latitude": 49.22361111111111,
    "longitude": 19.789722222222224
  },
  {
    "name": "Jarząbczak",
    "type": "dolina",
    "latitude": 49.28722222222222,
    "longitude": 20.071944444444444
  },
  {
    "name": "Jarząbczy Upłaz",
    "type": "góra, szczyt",
    "latitude": 49.22,
    "longitude": 19.8
  },
  {
    "name": "Jarząbczy Wierch",
    "type": "góra, szczyt",
    "latitude": 49.19833333333333,
    "longitude": 19.795
  },
  {
    "name": "Jasiorów Żleb",
    "type": "żleb",
    "latitude": 49.239444444444445,
    "longitude": 19.78777777777778
  },
  {
    "name": "Jaskinia w Czubie Jaworzyńskiej",
    "type": "jaskinia, grota",
    "latitude": 49.251666666666665,
    "longitude": 19.991666666666667
  },
  {
    "name": "Jaskinia Jaszczurowska Wodna",
    "type": "jaskinia, grota",
    "latitude": 49.28361111111111,
    "longitude": 20.00111111111111
  },
  {
    "name": "Jaskinia Jaszczurowska Wyżnia",
    "type": "jaskinia, grota",
    "latitude": 49.282777777777774,
    "longitude": 20.002777777777776
  },
  {
    "name": "Jaworzyna Rusinowa",
    "type": "hala",
    "latitude": 49.26166666666666,
    "longitude": 20.090277777777775
  },
  {
    "name": "Jaworzynka",
    "type": "hala",
    "latitude": 49.25888888888889,
    "longitude": 19.994722222222222
  },
  {
    "name": "Jaworzyńska Czuba",
    "type": "góra, szczyt",
    "latitude": 49.24916666666667,
    "longitude": 19.993333333333336
  },
  {
    "name": "Jaworzyńska Przełęcz",
    "type": "przełęcz",
    "latitude": 49.248333333333335,
    "longitude": 19.99638888888889
  },
  {
    "name": "Jaworzyński Przysłop",
    "type": "góra, szczyt",
    "latitude": 49.25416666666667,
    "longitude": 19.805
  },
  {
    "name": "Jaworzyński Źleb",
    "type": "żleb",
    "latitude": 49.27583333333333,
    "longitude": 20.066111111111113
  },
  {
    "name": "Jaworzyńskie Czoła",
    "type": "grań",
    "latitude": 49.25944444444445,
    "longitude": 19.97972222222222
  },
  {
    "name": "Jedyniak",
    "type": "jezioro",
    "latitude": 49.23972222222222,
    "longitude": 19.99888888888889
  },
  {
    "name": "Jędrusiowa Dziura",
    "type": "jaskinia, grota",
    "latitude": 49.24166666666667,
    "longitude": 19.923333333333336
  },
  {
    "name": "Jaskinia Juhaska",
    "type": "jaskinia, grota",
    "latitude": 49.255,
    "longitude": 19.943055555555556
  },
  {
    "name": "Juraniowa Przełęcz",
    "type": "przełęcz",
    "latitude": 49.2525,
    "longitude": 19.788611111111113
  },
  {
    "name": "Kalacka Kopa",
    "type": "góra, szczyt",
    "latitude": 49.254444444444445,
    "longitude": 19.953888888888887
  },
  {
    "name": "Kalacka Turnia",
    "type": "góra, szczyt",
    "latitude": 49.255833333333335,
    "longitude": 19.964166666666667
  },
  {
    "name": "Jaskinia Kalacka",
    "type": "jaskinia, grota",
    "latitude": 49.256388888888885,
    "longitude": 19.967777777777776
  },
  {
    "name": "Kalacki Upłaz",
    "type": "zbocze, stok",
    "latitude": 49.25833333333333,
    "longitude": 19.960555555555555
  },
  {
    "name": "Kalackie Koryto",
    "type": "żleb",
    "latitude": 49.25611111111111,
    "longitude": 19.960277777777776
  },
  {
    "name": "Kalackie Siodło",
    "type": "przełęcz",
    "latitude": 49.255,
    "longitude": 19.9625
  },
  {
    "name": "Kamienista",
    "type": "góra, szczyt",
    "latitude": 49.19583333333333,
    "longitude": 19.869444444444444
  },
  {
    "name": "Kamienisty Żleb",
    "type": "żleb",
    "latitude": 49.221111111111114,
    "longitude": 19.899722222222223
  },
  {
    "name": "Kamienne Mleko",
    "type": "jaskinia, grota",
    "latitude": 49.245555555555555,
    "longitude": 19.810833333333335
  },
  {
    "name": "Kamienne Tomanowe",
    "type": "wąwóz",
    "latitude": 49.23083333333334,
    "longitude": 19.888055555555557
  },
  {
    "name": "Kamienny Źleb",
    "type": "żleb",
    "latitude": 49.25666666666667,
    "longitude": 19.82611111111111
  },
  {
    "name": "Karb",
    "type": "przełęcz",
    "latitude": 49.22888888888889,
    "longitude": 20.011666666666667
  },
  {
    "name": "Karbik",
    "type": "przełęcz",
    "latitude": 49.236666666666665,
    "longitude": 20.069166666666668
  },
  {
    "name": "Karby",
    "type": "zbocze, stok",
    "latitude": 49.23638888888889,
    "longitude": 19.93611111111111
  },
  {
    "name": "Karczma",
    "type": "zbocze, stok",
    "latitude": 49.2425,
    "longitude": 19.83
  },
  {
    "name": "Karpenciny",
    "type": "góra, szczyt",
    "latitude": 49.315555555555555,
    "longitude": 20.1075
  },
  {
    "name": "Jaskinia Kasprowa Niżnia",
    "type": "jaskinia, grota",
    "latitude": 49.25416666666667,
    "longitude": 19.978888888888886
  },
  {
    "name": "Jaskinia Kasprowa Średnia",
    "type": "jaskinia, grota",
    "latitude": 49.25222222222222,
    "longitude": 19.983611111111113
  },
  {
    "name": "Jaskinia Kasprowa Wyżnia",
    "type": "jaskinia, grota",
    "latitude": 49.25222222222222,
    "longitude": 19.984444444444446
  },
  {
    "name": "Dolina Kasprowa",
    "type": "dolina",
    "latitude": 49.25333333333333,
    "longitude": 19.979166666666664
  },
  {
    "name": "Hala Kasprowa",
    "type": "hala",
    "latitude": 49.244166666666665,
    "longitude": 19.987222222222222
  },
  {
    "name": "Kasprowy Stawek",
    "type": "jezioro",
    "latitude": 49.25055555555556,
    "longitude": 19.980277777777776
  },
  {
    "name": "Kasprowy Wierch",
    "type": "góra, szczyt",
    "latitude": 49.231944444444444,
    "longitude": 19.981666666666666
  },
  {
    "name": "Kopa nad Białym",
    "type": "góra, szczyt",
    "latitude": 49.275555555555556,
    "longitude": 19.953888888888887
  },
  {
    "name": "Kazalnica",
    "type": "góra, szczyt",
    "latitude": 49.18527777777778,
    "longitude": 20.070833333333333
  },
  {
    "name": "Kępa",
    "type": "góra, szczyt",
    "latitude": 49.21472222222223,
    "longitude": 20.06972222222222
  },
  {
    "name": "Kiernia",
    "type": "góra, szczyt",
    "latitude": 49.265277777777776,
    "longitude": 19.923055555555557
  },
  {
    "name": "Kieszonki",
    "type": "zbocze, stok",
    "latitude": 49.200833333333335,
    "longitude": 20.053611111111113
  },
  {
    "name": "Kiry",
    "type": "zbocze, stok",
    "latitude": 49.22,
    "longitude": 20.089166666666664
  },
  {
    "name": "Żleb Kirkora",
    "type": "żleb",
    "latitude": 49.25277777777778,
    "longitude": 19.929722222222225
  },
  {
    "name": "Kirowy Upłaz",
    "type": "zbocze, stok",
    "latitude": 49.19888888888889,
    "longitude": 20.04527777777778
  },
  {
    "name": "Klinowa Czuba",
    "type": "góra, szczyt",
    "latitude": 49.26166666666666,
    "longitude": 19.825833333333332
  },
  {
    "name": "Klinowe Siodło",
    "type": "przełęcz",
    "latitude": 49.26166666666666,
    "longitude": 19.826944444444443
  },
  {
    "name": "Huciański Klin",
    "type": "góra, szczyt",
    "latitude": 49.260555555555555,
    "longitude": 19.822499999999998
  },
  {
    "name": "Kobylarzowa Turnia",
    "type": "góra, szczyt",
    "latitude": 49.24666666666667,
    "longitude": 19.90833333333333
  },
  {
    "name": "Kobylarzowy Żleb",
    "type": "żleb",
    "latitude": 49.243611111111115,
    "longitude": 19.909166666666664
  },
  {
    "name": "Kobyle Głowy",
    "type": "góra, szczyt",
    "latitude": 49.256388888888885,
    "longitude": 19.829722222222223
  },
  {
    "name": "Kobyła",
    "type": "góra, szczyt",
    "latitude": 49.277499999999996,
    "longitude": 20.04361111111111
  },
  {
    "name": "Kochy",
    "type": "zbocze, stok",
    "latitude": 49.238055555555555,
    "longitude": 19.93722222222222
  },
  {
    "name": "Koleba pod Chłopkiem",
    "type": "jaskinia, grota",
    "latitude": 49.18861111111111,
    "longitude": 20.069444444444443
  },
  {
    "name": "Kolebiska",
    "type": "zbocze, stok",
    "latitude": 49.253055555555555,
    "longitude": 19.992222222222225
  },
  {
    "name": "Kołowa Czuba",
    "type": "góra, szczyt",
    "latitude": 49.21472222222223,
    "longitude": 20.020555555555553
  },
  {
    "name": "Kominek Giewontowy",
    "type": "jaskinia, grota",
    "latitude": 49.25472222222222,
    "longitude": 19.93611111111111
  },
  {
    "name": "Kominiarska Przełęcz",
    "type": "przełęcz",
    "latitude": 49.25555555555555,
    "longitude": 19.834166666666665
  },
  {
    "name": "Przysłop Kominiarski",
    "type": "przełęcz",
    "latitude": 49.25611111111111,
    "longitude": 19.858055555555556
  },
  {
    "name": "Kominiarski Wierch",
    "type": "góra, szczyt",
    "latitude": 49.240833333333335,
    "longitude": 19.835555555555555
  },
  {
    "name": "Kominiarskie Siodło",
    "type": "przełęcz",
    "latitude": 49.25694444444444,
    "longitude": 19.841666666666665
  },
  {
    "name": "Kominy Dudowe",
    "type": "hala",
    "latitude": 49.24916666666667,
    "longitude": 19.828888888888887
  },
  {
    "name": "Kominy Tylkowe",
    "type": "hala",
    "latitude": 49.24944444444444,
    "longitude": 19.849722222222223
  },
  {
    "name": "Komora Gwiaździsta",
    "type": "jaskinia, grota",
    "latitude": 49.24527777777778,
    "longitude": 19.91861111111111
  },
  {
    "name": "Kopa Kondracka",
    "type": "góra, szczyt",
    "latitude": 49.23638888888889,
    "longitude": 19.932222222222222
  },
  {
    "name": "Przełęcz Kondracka",
    "type": "przełęcz",
    "latitude": 49.24611111111111,
    "longitude": 19.9325
  },
  {
    "name": "Dolina Kondratowa",
    "type": "dolina",
    "latitude": 49.24611111111111,
    "longitude": 19.947777777777777
  },
  {
    "name": "Hala Kondratowa",
    "type": "hala",
    "latitude": 49.24583333333334,
    "longitude": 19.953611111111112
  },
  {
    "name": "Kondratowy Wierch",
    "type": "góra, szczyt",
    "latitude": 49.23833333333334,
    "longitude": 19.95888888888889
  },
  {
    "name": "Dziura Niżnia w Kończystej Turni",
    "type": "jaskinia, grota",
    "latitude": 49.26416666666667,
    "longitude": 19.87777777777778
  },
  {
    "name": "Kończysty Wierch",
    "type": "góra, szczyt",
    "latitude": 49.205555555555556,
    "longitude": 19.8075
  },
  {
    "name": "Koński Żleb",
    "type": "żleb",
    "latitude": 49.26083333333333,
    "longitude": 19.935833333333335
  },
  {
    "name": "Kopa Królowa Mała",
    "type": "góra, szczyt",
    "latitude": 49.2525,
    "longitude": 20.002777777777776
  },
  {
    "name": "Kopa Królowa Wielka",
    "type": "góra, szczyt",
    "latitude": 49.255833333333335,
    "longitude": 20.004722222222224
  },
  {
    "name": "Kopa Magury",
    "type": "góra, szczyt",
    "latitude": 49.24861111111111,
    "longitude": 20.000555555555554
  },
  {
    "name": "Kopa nad Wrotami",
    "type": "góra, szczyt",
    "latitude": 49.19138888888889,
    "longitude": 20.04638888888889
  },
  {
    "name": "Kopa Prawdy",
    "type": "góra, szczyt",
    "latitude": 49.202222222222225,
    "longitude": 19.798611111111114
  },
  {
    "name": "Kopieniec",
    "type": "góra, szczyt",
    "latitude": 49.23916666666667,
    "longitude": 19.810000000000002
  },
  {
    "name": "Kopieńcowy Przechód",
    "type": "przełęcz",
    "latitude": 49.23722222222222,
    "longitude": 19.810277777777777
  },
  {
    "name": "Koprowa Studnia",
    "type": "jaskinia, grota",
    "latitude": 49.23916666666667,
    "longitude": 19.93027777777778
  },
  {
    "name": "Dolina Koprowa",
    "type": "żleb",
    "latitude": 49.24,
    "longitude": 19.931944444444447
  },
  {
    "name": "Koryciańska Czuba",
    "type": "góra, szczyt",
    "latitude": 49.27055555555555,
    "longitude": 19.801944444444445
  },
  {
    "name": "Koryciska",
    "type": "zbocze, stok",
    "latitude": 49.20472222222222,
    "longitude": 19.798611111111114
  },
  {
    "name": "Korytarz nad Dziurawem",
    "type": "jaskinia, grota",
    "latitude": 49.24166666666667,
    "longitude": 19.898055555555555
  },
  {
    "name": "Korytarz nad Piargiem",
    "type": "jaskinia, grota",
    "latitude": 49.24111111111111,
    "longitude": 19.905277777777776
  },
  {
    "name": "Jaskinia Korytarzowa",
    "type": "jaskinia, grota",
    "latitude": 49.2525,
    "longitude": 19.983611111111113
  },
  {
    "name": "Koryto",
    "type": "żleb",
    "latitude": 49.222500000000004,
    "longitude": 20.0575
  },
  {
    "name": "Koszysta",
    "type": "grań",
    "latitude": 49.24138888888889,
    "longitude": 20.048333333333336
  },
  {
    "name": "Kościelcowa Przełęcz",
    "type": "przełęcz",
    "latitude": 49.224444444444444,
    "longitude": 20.015
  },
  {
    "name": "Kościelec",
    "type": "góra, szczyt",
    "latitude": 49.22527777777778,
    "longitude": 20.014444444444443
  },
  {
    "name": "Dolina Kościeliska",
    "type": "dolina",
    "latitude": 49.256388888888885,
    "longitude": 19.868333333333332
  },
  {
    "name": "Kotelnica",
    "type": "grań",
    "latitude": 49.20138888888889,
    "longitude": 20.021944444444443
  },
  {
    "name": "Kotlinowy Stawek",
    "type": "jezioro",
    "latitude": 49.22972222222222,
    "longitude": 19.996666666666666
  },
  {
    "name": "Kotlinowy Wierch",
    "type": "góra, szczyt",
    "latitude": 49.27111111111111,
    "longitude": 20.029444444444444
  },
  {
    "name": "Kotliny",
    "type": "zbocze, stok",
    "latitude": 49.24,
    "longitude": 19.92138888888889
  },
  {
    "name": "Kotłowa Czubka",
    "type": "góra, szczyt",
    "latitude": 49.206944444444446,
    "longitude": 19.834999999999997
  },
  {
    "name": "Kotłowe Siodło",
    "type": "przełęcz",
    "latitude": 49.21,
    "longitude": 19.835833333333333
  },
  {
    "name": "Kotłowy Upłaz",
    "type": "zbocze, stok",
    "latitude": 49.20944444444445,
    "longitude": 19.83888888888889
  },
  {
    "name": "Kotły",
    "type": "zbocze, stok",
    "latitude": 49.21,
    "longitude": 19.83722222222222
  },
  {
    "name": "Kowaniec",
    "type": "zbocze, stok",
    "latitude": 49.26861111111111,
    "longitude": 19.81888888888889
  },
  {
    "name": "Kozi Grzbiet",
    "type": "grań",
    "latitude": 49.236111111111114,
    "longitude": 19.90888888888889
  },
  {
    "name": "Kozi Korytarz",
    "type": "jaskinia, grota",
    "latitude": 49.25527777777778,
    "longitude": 19.962777777777777
  },
  {
    "name": "Kozi Wierch",
    "type": "góra, szczyt",
    "latitude": 49.218333333333334,
    "longitude": 20.02861111111111
  },
  {
    "name": "Kozia Przełęcz",
    "type": "przełęcz",
    "latitude": 49.21944444444445,
    "longitude": 20.025277777777777
  },
  {
    "name": "Kozia Przełęcz Wyżnia",
    "type": "przełęcz",
    "latitude": 49.219166666666666,
    "longitude": 20.026666666666667
  },
  {
    "name": "Koziarczyska",
    "type": "góra, szczyt",
    "latitude": 49.28333333333333,
    "longitude": 20.050555555555555
  },
  {
    "name": "Koziarski Żleb",
    "type": "żleb",
    "latitude": 49.28194444444444,
    "longitude": 20.05638888888889
  },
  {
    "name": "Kozie Czuby",
    "type": "góra, szczyt",
    "latitude": 49.21888888888889,
    "longitude": 20.026944444444442
  },
  {
    "name": "Kozie Percie",
    "type": "grań",
    "latitude": 49.21333333333334,
    "longitude": 20.033611111111114
  },
  {
    "name": "Kozie Upłazki",
    "type": "zbocze, stok",
    "latitude": 49.23361111111111,
    "longitude": 19.898333333333333
  },
  {
    "name": "Koziniec",
    "type": "wzgórze, wzniesienie",
    "latitude": 49.334722222222226,
    "longitude": 20.13138888888889
  },
  {
    "name": "Koziniecki Źleb",
    "type": "żleb",
    "latitude": 49.271388888888886,
    "longitude": 19.823055555555555
  },
  {
    "name": "Krakowska Piwnica",
    "type": "jaskinia, grota",
    "latitude": 49.23361111111111,
    "longitude": 19.876944444444444
  },
  {
    "name": "Krakowskie Okno",
    "type": "jaskinia, grota",
    "latitude": 49.23777777777778,
    "longitude": 19.87027777777778
  },
  {
    "name": "Kraków",
    "type": "wąwóz",
    "latitude": 49.23694444444445,
    "longitude": 19.87
  },
  {
    "name": "Krokiew",
    "type": "góra, szczyt",
    "latitude": 49.26722222222222,
    "longitude": 19.96472222222222
  },
  {
    "name": "Krowi Żleb",
    "type": "żleb",
    "latitude": 49.25833333333333,
    "longitude": 19.880555555555556
  },
  {
    "name": "Królicza Jama",
    "type": "jaskinia, grota",
    "latitude": 49.239444444444445,
    "longitude": 19.920555555555556
  },
  {
    "name": "Królowa Niżnia",
    "type": "hala",
    "latitude": 49.25833333333333,
    "longitude": 20.003055555555555
  },
  {
    "name": "Królowa Rówień",
    "type": "hala",
    "latitude": 49.251666666666665,
    "longitude": 20.006944444444443
  },
  {
    "name": "Królowa Wyżnia",
    "type": "hala",
    "latitude": 49.24805555555556,
    "longitude": 20.010277777777777
  },
  {
    "name": "Królowe Rówienki",
    "type": "hala",
    "latitude": 49.24638888888889,
    "longitude": 20.008333333333333
  },
  {
    "name": "Krówski Żleb",
    "type": "żleb",
    "latitude": 49.248333333333335,
    "longitude": 19.94472222222222
  },
  {
    "name": "Krucha Szczelina",
    "type": "jaskinia, grota",
    "latitude": 49.24055555555556,
    "longitude": 19.900277777777777
  },
  {
    "name": "Kruźlik",
    "type": "góra, szczyt",
    "latitude": 49.23638888888889,
    "longitude": 19.769444444444442
  },
  {
    "name": "Kryta",
    "type": "wzgórze, wzniesienie",
    "latitude": 49.263888888888886,
    "longitude": 19.80611111111111
  },
  {
    "name": "Krzesanica",
    "type": "góra, szczyt",
    "latitude": 49.23166666666667,
    "longitude": 19.909444444444443
  },
  {
    "name": "Krzywy Żleb",
    "type": "żleb",
    "latitude": 49.20305555555556,
    "longitude": 19.82361111111111
  },
  {
    "name": "Krzyż",
    "type": "góra, szczyt",
    "latitude": 49.23722222222222,
    "longitude": 20.0175
  },
  {
    "name": "Krzyżne",
    "type": "przełęcz",
    "latitude": 49.228611111111114,
    "longitude": 20.047222222222224
  },
  {
    "name": "Dolina ku Dziurze",
    "type": "dolina",
    "latitude": 49.27388888888889,
    "longitude": 19.941388888888888
  },
  {
    "name": "Przełęcz ku Stawku",
    "type": "przełęcz",
    "latitude": 49.24666666666667,
    "longitude": 19.851111111111113
  },
  {
    "name": "Kuca",
    "type": "góra, szczyt",
    "latitude": 49.26111111111111,
    "longitude": 19.831944444444446
  },
  {
    "name": "Kulawiec",
    "type": "góra, szczyt",
    "latitude": 49.230555555555554,
    "longitude": 19.80888888888889
  },
  {
    "name": "Kulowiańska Dolina",
    "type": "dolina",
    "latitude": 49.32638888888889,
    "longitude": 19.916666666666668
  },
  {
    "name": "Żleb Kulczyńskiego",
    "type": "żleb",
    "latitude": 49.22083333333334,
    "longitude": 20.033055555555556
  },
  {
    "name": "Kurski Żleb",
    "type": "żleb",
    "latitude": 49.24666666666667,
    "longitude": 19.93638888888889
  },
  {
    "name": "Kurtkowiec",
    "type": "jezioro",
    "latitude": 49.22944444444445,
    "longitude": 20.003055555555555
  },
  {
    "name": "Lejowa Szczelina",
    "type": "jaskinia, grota",
    "latitude": 49.24333333333333,
    "longitude": 19.843055555555555
  },
  {
    "name": "Dolina Lejowa",
    "type": "dolina",
    "latitude": 49.26555555555556,
    "longitude": 19.84361111111111
  },
  {
    "name": "Lejowe Banie",
    "type": "inny obiekt [3]",
    "latitude": 49.26611111111111,
    "longitude": 19.8375
  },
  {
    "name": "Siodło",
    "type": "przełęcz",
    "latitude": 49.26305555555555,
    "longitude": 19.833333333333332
  },
  {
    "name": "Liliowe",
    "type": "przełęcz",
    "latitude": 49.22555555555556,
    "longitude": 19.991666666666667
  },
  {
    "name": "Liliowe Turnie",
    "type": "grań",
    "latitude": 49.19777777777777,
    "longitude": 19.833055555555557
  },
  {
    "name": "Liliowe Żleby",
    "type": "żleb",
    "latitude": 49.199999999999996,
    "longitude": 19.836944444444445
  },
  {
    "name": "Liliowy Upłaz",
    "type": "zbocze, stok",
    "latitude": 49.19833333333333,
    "longitude": 19.835277777777776
  },
  {
    "name": "Lipki",
    "type": "wzgórze, wzniesienie",
    "latitude": 49.28916666666667,
    "longitude": 19.94472222222222
  },
  {
    "name": "Liptowska Ławka Niżnia",
    "type": "przełęcz",
    "latitude": 49.19944444444444,
    "longitude": 20.032777777777778
  },
  {
    "name": "Liptowska Ławka Wyżnia",
    "type": "przełęcz",
    "latitude": 49.198611111111106,
    "longitude": 20.034444444444446
  },
  {
    "name": "Liptowskie Mury",
    "type": "grań",
    "latitude": 49.2,
    "longitude": 20.028055555555554
  },
  {
    "name": "Dolina Litworowa",
    "type": "dolina",
    "latitude": 49.23694444444445,
    "longitude": 19.911944444444444
  },
  {
    "name": "Przełęcz Litworowa",
    "type": "przełęcz",
    "latitude": 49.233333333333334,
    "longitude": 19.91444444444444
  },
  {
    "name": "Litworowa Studnia",
    "type": "jaskinia, grota",
    "latitude": 49.23361111111111,
    "longitude": 19.914166666666667
  },
  {
    "name": "Litworowy Grzbiet",
    "type": "grań",
    "latitude": 49.24277777777778,
    "longitude": 19.909166666666664
  },
  {
    "name": "Litworowy Staw",
    "type": "jezioro",
    "latitude": 49.23361111111111,
    "longitude": 19.996944444444445
  },
  {
    "name": "Litworowy Upłaz",
    "type": "zbocze, stok",
    "latitude": 49.23888888888889,
    "longitude": 19.91583333333333
  },
  {
    "name": "Litworowy Żleb",
    "type": "żleb",
    "latitude": 49.22666666666667,
    "longitude": 19.77611111111111
  },
  {
    "name": "Jaskinia Lodowa Krakowska",
    "type": "jaskinia, grota",
    "latitude": 49.231944444444444,
    "longitude": 19.8875
  },
  {
    "name": "Jaskinia Lodowa Litworowa",
    "type": "jaskinia, grota",
    "latitude": 49.24,
    "longitude": 19.904166666666665
  },
  {
    "name": "Jaskinia Lodowa Małołącka",
    "type": "jaskinia, grota",
    "latitude": 49.24277777777778,
    "longitude": 19.928333333333335
  },
  {
    "name": "Jaskinia Lodowa Mułowa",
    "type": "jaskinia, grota",
    "latitude": 49.23916666666667,
    "longitude": 19.90222222222222
  },
  {
    "name": "Jaskinia Lodowa w Ciemniaku",
    "type": "jaskinia, grota",
    "latitude": 49.23388888888889,
    "longitude": 19.892222222222223
  },
  {
    "name": "Lodowe Źródło",
    "type": "źródło",
    "latitude": 49.25555555555555,
    "longitude": 19.86861111111111
  },
  {
    "name": "Lustrzana Szczelina",
    "type": "jaskinia, grota",
    "latitude": 49.23166666666667,
    "longitude": 19.884166666666665
  },
  {
    "name": "Komin Flacha",
    "type": "wąwóz",
    "latitude": 49.24611111111111,
    "longitude": 19.918055555555558
  },
  {
    "name": "Łasicowa Czubka",
    "type": "góra, szczyt",
    "latitude": 49.25555555555555,
    "longitude": 20.041944444444447
  },
  {
    "name": "Łasicowe Siodło",
    "type": "przełęcz",
    "latitude": 49.25527777777778,
    "longitude": 20.04138888888889
  },
  {
    "name": "Dolina Łężna",
    "type": "dolina",
    "latitude": 49.28333333333333,
    "longitude": 20.075833333333332
  },
  {
    "name": "Łężny Wierch",
    "type": "góra, szczyt",
    "latitude": 49.27472222222222,
    "longitude": 20.070833333333333
  },
  {
    "name": "Łomnik",
    "type": "góra, szczyt",
    "latitude": 49.26916666666666,
    "longitude": 19.948055555555555
  },
  {
    "name": "Łomniki",
    "type": "zbocze, stok",
    "latitude": 49.24333333333333,
    "longitude": 19.868055555555557
  },
  {
    "name": "Łopata",
    "type": "zbocze, stok",
    "latitude": 49.20194444444445,
    "longitude": 19.81972222222222
  },
  {
    "name": "Łuczniańska Przełęcz",
    "type": "przełęcz",
    "latitude": 49.233333333333334,
    "longitude": 19.76722222222222
  },
  {
    "name": "Łysa Skałka",
    "type": "wzgórze, wzniesienie",
    "latitude": 49.26555555555556,
    "longitude": 20.11388888888889
  },
  {
    "name": "Łysanki",
    "type": "góra, szczyt",
    "latitude": 49.26222222222222,
    "longitude": 19.915555555555553
  },
  {
    "name": "Maćkowa Dolina",
    "type": "dolina",
    "latitude": 49.32611111111112,
    "longitude": 20.1175
  },
  {
    "name": "Maćkowa Dziura",
    "type": "jaskinia, grota",
    "latitude": 49.2425,
    "longitude": 19.92027777777778
  },
  {
    "name": "Magura Witowska",
    "type": "góra, szczyt",
    "latitude": 49.29611111111111,
    "longitude": 19.794444444444448
  },
  {
    "name": "Jaskinia Magurska",
    "type": "jaskinia, grota",
    "latitude": 49.25,
    "longitude": 19.99638888888889
  },
  {
    "name": "Magurski Upłaz",
    "type": "zbocze, stok",
    "latitude": 49.236111111111114,
    "longitude": 19.942222222222224
  },
  {
    "name": "Mała Buczynowa Turnia",
    "type": "góra, szczyt",
    "latitude": 49.22777777777778,
    "longitude": 20.043333333333337
  },
  {
    "name": "Mała Cubryńska Galeria",
    "type": "zbocze, stok",
    "latitude": 49.190555555555555,
    "longitude": 20.055
  },
  {
    "name": "Mała Dolinka",
    "type": "dolina",
    "latitude": 49.2575,
    "longitude": 19.929444444444446
  },
  {
    "name": "Mała Dziura Giewontowa",
    "type": "jaskinia, grota",
    "latitude": 49.255,
    "longitude": 19.9325
  },
  {
    "name": "Mała Kopka",
    "type": "góra, szczyt",
    "latitude": 49.23638888888889,
    "longitude": 20.03527777777778
  },
  {
    "name": "Mała Koszysta",
    "type": "góra, szczyt",
    "latitude": 49.24388888888889,
    "longitude": 20.053611111111113
  },
  {
    "name": "Mała Kotelnica",
    "type": "grań",
    "latitude": 49.20055555555556,
    "longitude": 20.025555555555556
  },
  {
    "name": "Mała Krokiew",
    "type": "góra, szczyt",
    "latitude": 49.26416666666667,
    "longitude": 19.96388888888889
  },
  {
    "name": "Mała Łąka",
    "type": "hala",
    "latitude": 49.24611111111111,
    "longitude": 19.92527777777778
  },
  {
    "name": "Mała Pańszczycka Młaka",
    "type": "torfowisko",
    "latitude": 49.26833333333333,
    "longitude": 20.047777777777778
  },
  {
    "name": "Mała Przełączka",
    "type": "przełęcz",
    "latitude": 49.22694444444445,
    "longitude": 19.90361111111111
  },
  {
    "name": "Mała Rogata Szczerbina",
    "type": "przełęcz",
    "latitude": 49.18,
    "longitude": 20.072499999999998
  },
  {
    "name": "Mała Sucha Dolina",
    "type": "dolina",
    "latitude": 49.27305555555555,
    "longitude": 19.831944444444446
  },
  {
    "name": "Mała Szczerba",
    "type": "żleb",
    "latitude": 49.21416666666667,
    "longitude": 19.81833333333333
  },
  {
    "name": "Mała Świstówka",
    "type": "kotlina",
    "latitude": 49.244166666666665,
    "longitude": 19.895
  },
  {
    "name": "Mała Wołowa Szczerbina",
    "type": "przełęcz",
    "latitude": 49.180277777777775,
    "longitude": 20.072499999999998
  },
  {
    "name": "Mała Zawiesista Turnia",
    "type": "góra, szczyt",
    "latitude": 49.26222222222222,
    "longitude": 19.885277777777777
  },
  {
    "name": "Małe Kamienne",
    "type": "zbocze, stok",
    "latitude": 49.23722222222222,
    "longitude": 19.866388888888892
  },
  {
    "name": "Małe Kopisko",
    "type": "zbocze, stok",
    "latitude": 49.24138888888889,
    "longitude": 19.785555555555558
  },
  {
    "name": "Małe Koryciska",
    "type": "dolina",
    "latitude": 49.27111111111111,
    "longitude": 19.81388888888889
  },
  {
    "name": "Małe Morskie Oko",
    "type": "jezioro",
    "latitude": 49.20166666666667,
    "longitude": 20.072222222222223
  },
  {
    "name": "Małe Siodło",
    "type": "zbocze, stok",
    "latitude": 49.255833333333335,
    "longitude": 19.994722222222222
  },
  {
    "name": "Małe Szerokie",
    "type": "zbocze, stok",
    "latitude": 49.245,
    "longitude": 19.933333333333334
  },
  {
    "name": "Małe Uhrocie Kasprowe",
    "type": "góra, szczyt",
    "latitude": 49.24333333333333,
    "longitude": 19.996944444444445
  },
  {
    "name": "Małe Żabie Oko",
    "type": "jezioro",
    "latitude": 49.20333333333333,
    "longitude": 20.073055555555555
  },
  {
    "name": "Dolina Małego Szerokiego",
    "type": "dolina",
    "latitude": 49.24611111111111,
    "longitude": 19.9425
  },
  {
    "name": "Dolina Małej Łąki",
    "type": "dolina",
    "latitude": 49.26583333333333,
    "longitude": 19.90111111111111
  },
  {
    "name": "Małołącka Przełęcz",
    "type": "przełęcz",
    "latitude": 49.23555555555556,
    "longitude": 19.928611111111113
  },
  {
    "name": "Jaskinia Małołącka",
    "type": "jaskinia, grota",
    "latitude": 49.23861111111111,
    "longitude": 19.921666666666667
  },
  {
    "name": "Małołączniak",
    "type": "góra, szczyt",
    "latitude": 49.23583333333333,
    "longitude": 19.91916666666667
  },
  {
    "name": "Mały Bacuch",
    "type": "zbocze, stok",
    "latitude": 49.25555555555555,
    "longitude": 19.927500000000002
  },
  {
    "name": "Mały Ciemniak",
    "type": "żleb",
    "latitude": 49.25666666666667,
    "longitude": 19.813055555555557
  },
  {
    "name": "Mały Giewont",
    "type": "góra, szczyt",
    "latitude": 49.25111111111111,
    "longitude": 19.92777777777778
  },
  {
    "name": "Mały Kopieniec",
    "type": "góra, szczyt",
    "latitude": 49.27611111111111,
    "longitude": 20.005
  },
  {
    "name": "Mały Kościelec",
    "type": "góra, szczyt",
    "latitude": 49.23388888888889,
    "longitude": 20.009444444444444
  },
  {
    "name": "Mały Kozi Wierch",
    "type": "góra, szczyt",
    "latitude": 49.21888888888889,
    "longitude": 20.02
  },
  {
    "name": "Mały Opalony Wierch",
    "type": "góra, szczyt",
    "latitude": 49.25194444444445,
    "longitude": 19.833055555555557
  },
  {
    "name": "Mały Regiel",
    "type": "góra, szczyt",
    "latitude": 49.27111111111111,
    "longitude": 19.8775
  },
  {
    "name": "Mały Rohacz",
    "type": "zbocze, stok",
    "latitude": 49.21805555555556,
    "longitude": 19.83138888888889
  },
  {
    "name": "Mały Staw",
    "type": "jezioro",
    "latitude": 49.21194444444445,
    "longitude": 20.04527777777778
  },
  {
    "name": "Mały Wołoszyn",
    "type": "góra, szczyt",
    "latitude": 49.228611111111114,
    "longitude": 20.049166666666668
  },
  {
    "name": "Mały Żlebek",
    "type": "dolina",
    "latitude": 49.27361111111111,
    "longitude": 19.91111111111111
  },
  {
    "name": "Marchwiczna Przełęcz",
    "type": "przełęcz",
    "latitude": 49.20611111111111,
    "longitude": 20.05638888888889
  },
  {
    "name": "Marchwiczne",
    "type": "zbocze, stok",
    "latitude": 49.20472222222222,
    "longitude": 20.058333333333334
  },
  {
    "name": "Marchwiczny Żleb",
    "type": "żleb",
    "latitude": 49.20277777777778,
    "longitude": 20.064722222222223
  },
  {
    "name": "Jaskinia Marmurowa",
    "type": "jaskinia, grota",
    "latitude": 49.239444444444445,
    "longitude": 19.900555555555552
  },
  {
    "name": "Marusarzowa Przełączka",
    "type": "przełęcz",
    "latitude": 49.19555555555555,
    "longitude": 20.084444444444443
  },
  {
    "name": "Marusarzowa Turnia",
    "type": "góra, szczyt",
    "latitude": 49.19499999999999,
    "longitude": 20.084444444444443
  },
  {
    "name": "Marusarzowy Żleb",
    "type": "żleb",
    "latitude": 49.19444444444444,
    "longitude": 20.08222222222222
  },
  {
    "name": "Maśniakowa",
    "type": "góra, szczyt",
    "latitude": 49.330555555555556,
    "longitude": 19.802500000000002
  },
  {
    "name": "Mącicki Źleb",
    "type": "żleb",
    "latitude": 49.275277777777774,
    "longitude": 19.838055555555556
  },
  {
    "name": "Mechy",
    "type": "zbocze, stok",
    "latitude": 49.24444444444445,
    "longitude": 19.943055555555556
  },
  {
    "name": "Miedziane",
    "type": "góra, szczyt",
    "latitude": 49.20138888888889,
    "longitude": 20.04888888888889
  },
  {
    "name": "Miedziane Kochy",
    "type": "góra, szczyt",
    "latitude": 49.20027777777778,
    "longitude": 20.053333333333335
  },
  {
    "name": "Miedziany Kostur",
    "type": "grań",
    "latitude": 49.20333333333333,
    "longitude": 20.046111111111113
  },
  {
    "name": "Miedziany Upłaz",
    "type": "zbocze, stok",
    "latitude": 49.202222222222225,
    "longitude": 20.046111111111113
  },
  {
    "name": "Między Ściany",
    "type": "wąwóz",
    "latitude": 49.25277777777778,
    "longitude": 19.82
  },
  {
    "name": "Mięguszowiecka Przełęcz pod Chłopkiem",
    "type": "przełęcz",
    "latitude": 49.183611111111105,
    "longitude": 20.06527777777778
  },
  {
    "name": "Mięguszowiecka Przełęcz",
    "type": "przełęcz",
    "latitude": 49.18555555555555,
    "longitude": 20.061111111111114
  },
  {
    "name": "Mięguszowiecki Czarny",
    "type": "góra, szczyt",
    "latitude": 49.18277777777777,
    "longitude": 20.0675
  },
  {
    "name": "Mięguszowiecki Szczyt",
    "type": "góra, szczyt",
    "latitude": 49.18722222222222,
    "longitude": 20.059722222222224
  },
  {
    "name": "Mięguszowiecki Szczyt Pośredni",
    "type": "góra, szczyt",
    "latitude": 49.18472222222222,
    "longitude": 20.063055555555557
  },
  {
    "name": "Miękusy",
    "type": "zbocze, stok",
    "latitude": 49.24583333333334,
    "longitude": 19.997500000000002
  },
  {
    "name": "Jaskinia Miętusia Wyżnia",
    "type": "jaskinia, grota",
    "latitude": 49.24583333333334,
    "longitude": 19.897222222222222
  },
  {
    "name": "Dolina Miętusia",
    "type": "dolina",
    "latitude": 49.26027777777778,
    "longitude": 19.891111111111112
  },
  {
    "name": "Hala Miętusia",
    "type": "hala",
    "latitude": 49.249722222222225,
    "longitude": 19.90222222222222
  },
  {
    "name": "Jaskinia Miętusia",
    "type": "jaskinia, grota",
    "latitude": 49.24638888888889,
    "longitude": 19.898888888888887
  },
  {
    "name": "Mlaskacz",
    "type": "żleb",
    "latitude": 49.22944444444445,
    "longitude": 19.81138888888889
  },
  {
    "name": "Młyn",
    "type": "wodospad",
    "latitude": 49.24666666666667,
    "longitude": 20.06861111111111
  },
  {
    "name": "Mnich",
    "type": "góra, szczyt",
    "latitude": 49.192499999999995,
    "longitude": 20.05527777777778
  },
  {
    "name": "Mnichowa Kopa",
    "type": "góra, szczyt",
    "latitude": 49.190555555555555,
    "longitude": 20.052500000000002
  },
  {
    "name": "Mnichowa Studnia",
    "type": "jaskinia, grota",
    "latitude": 49.24305555555556,
    "longitude": 19.928611111111113
  },
  {
    "name": "Mniszek",
    "type": "góra, szczyt",
    "latitude": 49.19222222222222,
    "longitude": 20.054444444444446
  },
  {
    "name": "Mocórki",
    "type": "zbocze, stok",
    "latitude": 49.211666666666666,
    "longitude": 19.798611111111114
  },
  {
    "name": "Mokra Jama",
    "type": "jezioro",
    "latitude": 49.24166666666667,
    "longitude": 20.003333333333334
  },
  {
    "name": "Mokry Żleb",
    "type": "żleb",
    "latitude": 49.22694444444445,
    "longitude": 19.811111111111114
  },
  {
    "name": "Mokrzyniec",
    "type": "żleb",
    "latitude": 49.212500000000006,
    "longitude": 19.790555555555557
  },
  {
    "name": "Morskie Oko",
    "type": "jezioro",
    "latitude": 49.1975,
    "longitude": 20.070833333333333
  },
  {
    "name": "Hala Morskiego Oka",
    "type": "hala",
    "latitude": 49.20055555555556,
    "longitude": 20.064444444444444
  },
  {
    "name": "Jaskinia Mroźna",
    "type": "jaskinia, grota",
    "latitude": 49.24944444444444,
    "longitude": 19.8675
  },
  {
    "name": "Mułowa Przełęcz",
    "type": "przełęcz",
    "latitude": 49.23111111111111,
    "longitude": 19.905555555555555
  },
  {
    "name": "Dolina Mułowa",
    "type": "dolina",
    "latitude": 49.23555555555556,
    "longitude": 19.90611111111111
  },
  {
    "name": "Mylna Przełęcz",
    "type": "przełęcz",
    "latitude": 49.222500000000004,
    "longitude": 20.015833333333333
  },
  {
    "name": "Jaskinia Mylna",
    "type": "jaskinia, grota",
    "latitude": 49.24055555555556,
    "longitude": 19.86277777777778
  },
  {
    "name": "Myślenicka Dziura",
    "type": "jaskinia, grota",
    "latitude": 49.2525,
    "longitude": 19.972777777777775
  },
  {
    "name": "Myślenickie Turnie",
    "type": "góra, szczyt",
    "latitude": 49.25222222222222,
    "longitude": 19.973333333333333
  },
  {
    "name": "Stawek na Kopkach",
    "type": "jezioro",
    "latitude": 49.19499999999999,
    "longitude": 20.046666666666667
  },
  {
    "name": "Jaskinia Naciekowa",
    "type": "jaskinia, grota",
    "latitude": 49.250277777777775,
    "longitude": 19.86722222222222
  },
  {
    "name": "Dolina nad Capkami",
    "type": "dolina",
    "latitude": 49.27444444444444,
    "longitude": 19.968055555555555
  },
  {
    "name": "Jaskinia nad Korytem",
    "type": "jaskinia, grota",
    "latitude": 49.24722222222222,
    "longitude": 19.911666666666665
  },
  {
    "name": "Nad Szatrą",
    "type": "zbocze, stok",
    "latitude": 49.26638888888889,
    "longitude": 19.903888888888886
  },
  {
    "name": "Dziura nad Zachodem Wyżnia",
    "type": "jaskinia, grota",
    "latitude": 49.236111111111114,
    "longitude": 19.87638888888889
  },
  {
    "name": "Nalepki",
    "type": "góra, szczyt",
    "latitude": 49.23416666666667,
    "longitude": 19.985277777777778
  },
  {
    "name": "Nędzowski Dział",
    "type": "góra, szczyt",
    "latitude": 49.27444444444444,
    "longitude": 19.883055555555558
  },
  {
    "name": "Niebieska Dolina",
    "type": "dolina",
    "latitude": 49.31722222222223,
    "longitude": 20.108055555555556
  },
  {
    "name": "Niebieska Przełęcz",
    "type": "przełęcz",
    "latitude": 49.21944444444445,
    "longitude": 20.01388888888889
  },
  {
    "name": "Niebieska Turnia",
    "type": "góra, szczyt",
    "latitude": 49.219722222222224,
    "longitude": 20.01388888888889
  },
  {
    "name": "Nieborak",
    "type": "góra, szczyt",
    "latitude": 49.268055555555556,
    "longitude": 19.991111111111113
  },
  {
    "name": "Jaskinia Niedźwiedzia Niżnia",
    "type": "jaskinia, grota",
    "latitude": 49.246944444444445,
    "longitude": 19.89527777777778
  },
  {
    "name": "Niedźwiedź",
    "type": "góra, szczyt",
    "latitude": 49.230000000000004,
    "longitude": 19.885277777777777
  },
  {
    "name": "Nieskorniaki",
    "type": "zbocze, stok",
    "latitude": 49.20916666666667,
    "longitude": 19.810277777777777
  },
  {
    "name": "Niska Przełęcz",
    "type": "przełęcz",
    "latitude": 49.19916666666666,
    "longitude": 19.787222222222223
  },
  {
    "name": "Niski Upłaz",
    "type": "zbocze, stok",
    "latitude": 49.228611111111114,
    "longitude": 19.897222222222222
  },
  {
    "name": "Niski Wierch",
    "type": "wzgórze, wzniesienie",
    "latitude": 49.335,
    "longitude": 20.12027777777778
  },
  {
    "name": "Nisza Zachodnia",
    "type": "jaskinia, grota",
    "latitude": 49.24305555555556,
    "longitude": 19.849722222222223
  },
  {
    "name": "Niżni Liptowski Kostur",
    "type": "góra, szczyt",
    "latitude": 49.199999999999996,
    "longitude": 20.03222222222222
  },
  {
    "name": "Niżni Mnichowy Upłaz",
    "type": "zbocze, stok",
    "latitude": 49.24444444444445,
    "longitude": 19.928611111111113
  },
  {
    "name": "Niżni Staw Staszica",
    "type": "jezioro",
    "latitude": 49.196666666666665,
    "longitude": 20.051944444444445
  },
  {
    "name": "Niżni Zagon",
    "type": "zbocze, stok",
    "latitude": 49.214444444444446,
    "longitude": 20.040277777777778
  },
  {
    "name": "Dziura Stanikowa Niżnia",
    "type": "jaskinia, grota",
    "latitude": 49.268055555555556,
    "longitude": 19.880555555555556
  },
  {
    "name": "Niżnia Filipczańska Przełęcz",
    "type": "przełęcz",
    "latitude": 49.27444444444444,
    "longitude": 20.075277777777778
  },
  {
    "name": "Niżnia Jaskinia nad Mostkiem",
    "type": "jaskinia, grota",
    "latitude": 49.25111111111111,
    "longitude": 19.86388888888889
  },
  {
    "name": "Niżnia Kopa",
    "type": "góra, szczyt",
    "latitude": 49.214444444444446,
    "longitude": 20.051111111111112
  },
  {
    "name": "Niżnia Kopka",
    "type": "góra, szczyt",
    "latitude": 49.250277777777775,
    "longitude": 20.084166666666665
  },
  {
    "name": "Przełęcz Białego",
    "type": "przełęcz",
    "latitude": 49.26277777777778,
    "longitude": 19.964166666666667
  },
  {
    "name": "Niżnia Sucha Przełęcz",
    "type": "przełęcz",
    "latitude": 49.25666666666667,
    "longitude": 19.942777777777778
  },
  {
    "name": "Niżnia Sztolnia",
    "type": "wąwóz",
    "latitude": 49.265277777777776,
    "longitude": 20.03611111111111
  },
  {
    "name": "Jaskinia Wołoszyńska Niżnia",
    "type": "jaskinia, grota",
    "latitude": 49.24472222222222,
    "longitude": 20.08972222222222
  },
  {
    "name": "Niżnie Dudowe Siodło",
    "type": "przełęcz",
    "latitude": 49.251666666666665,
    "longitude": 19.834166666666665
  },
  {
    "name": "Niżnie Kasprowe Siodło",
    "type": "przełęcz",
    "latitude": 49.24277777777778,
    "longitude": 19.996666666666666
  },
  {
    "name": "Niżnie Rysy",
    "type": "góra, szczyt",
    "latitude": 49.18333333333333,
    "longitude": 20.088055555555556
  },
  {
    "name": "Niżnie Siodło",
    "type": "przełęcz",
    "latitude": 49.233333333333334,
    "longitude": 20.072777777777777
  },
  {
    "name": "Niżnie Skałki",
    "type": "zbocze, stok",
    "latitude": 49.24305555555556,
    "longitude": 20.0825
  },
  {
    "name": "Niżnie Solnisko",
    "type": "zbocze, stok",
    "latitude": 49.21083333333333,
    "longitude": 20.030277777777776
  },
  {
    "name": "Niżnie Stanikowe Siodło",
    "type": "przełęcz",
    "latitude": 49.26972222222222,
    "longitude": 19.878055555555555
  },
  {
    "name": "Niżnie Zielone",
    "type": "wzgórze, wzniesienie",
    "latitude": 49.24194444444444,
    "longitude": 20.040277777777778
  },
  {
    "name": "Nosal",
    "type": "góra, szczyt",
    "latitude": 49.27638888888889,
    "longitude": 19.989444444444445
  },
  {
    "name": "Nosalowa Przełęcz",
    "type": "przełęcz",
    "latitude": 49.27305555555555,
    "longitude": 19.99138888888889
  },
  {
    "name": "Jaskinia Nowa nad Raptawicką Granią",
    "type": "jaskinia, grota",
    "latitude": 49.23972222222222,
    "longitude": 19.851111111111113
  },
  {
    "name": "Nowe Spalenisko",
    "type": "zbocze, stok",
    "latitude": 49.22888888888889,
    "longitude": 20.0675
  },
  {
    "name": "Przełęcz Nowickiego",
    "type": "przełęcz",
    "latitude": 49.227222222222224,
    "longitude": 20.038333333333334
  },
  {
    "name": "Nyża pod Brzózką",
    "type": "jaskinia, grota",
    "latitude": 49.25333333333333,
    "longitude": 19.930555555555557
  },
  {
    "name": "Obłaz",
    "type": "zbocze, stok",
    "latitude": 49.26861111111111,
    "longitude": 19.982499999999998
  },
  {
    "name": "Obłazki",
    "type": "zbocze, stok",
    "latitude": 49.235,
    "longitude": 19.988055555555558
  },
  {
    "name": "Jaskinia Obłazkowa",
    "type": "jaskinia, grota",
    "latitude": 49.239444444444445,
    "longitude": 19.862222222222222
  },
  {
    "name": "Ogarle",
    "type": "żleb",
    "latitude": 49.24111111111111,
    "longitude": 19.81638888888889
  },
  {
    "name": "Ogrody",
    "type": "zbocze, stok",
    "latitude": 49.25861111111111,
    "longitude": 19.99527777777778
  },
  {
    "name": "Ogród",
    "type": "żleb",
    "latitude": 49.24388888888889,
    "longitude": 19.933888888888887
  },
  {
    "name": "Okna Zbójnickie Niżnie",
    "type": "jaskinia, grota",
    "latitude": 49.24916666666667,
    "longitude": 19.868333333333332
  },
  {
    "name": "Okna Zbójnickie Wyżnie",
    "type": "jaskinia, grota",
    "latitude": 49.24861111111111,
    "longitude": 19.868333333333332
  },
  {
    "name": "Olczański Wierch",
    "type": "zbocze, stok",
    "latitude": 49.309444444444445,
    "longitude": 20.010277777777777
  },
  {
    "name": "Olczysko",
    "type": "dolina",
    "latitude": 49.27027777777778,
    "longitude": 20.004444444444445
  },
  {
    "name": "Olczyskie Wywierzysko",
    "type": "źródło",
    "latitude": 49.2675,
    "longitude": 20.002222222222223
  },
  {
    "name": "Jaskinia Omszała",
    "type": "jaskinia, grota",
    "latitude": 49.23888888888889,
    "longitude": 19.920833333333334
  },
  {
    "name": "Opaleniec",
    "type": "zbocze, stok",
    "latitude": 49.260555555555555,
    "longitude": 19.990000000000002
  },
  {
    "name": "Opalone",
    "type": "zbocze, stok",
    "latitude": 49.25277777777778,
    "longitude": 19.95777777777778
  },
  {
    "name": "Opalony Wierch",
    "type": "góra, szczyt",
    "latitude": 49.20805555555556,
    "longitude": 20.059166666666666
  },
  {
    "name": "Orla Baszta",
    "type": "góra, szczyt",
    "latitude": 49.22777777777778,
    "longitude": 20.035555555555558
  },
  {
    "name": "Ornaczańska Przełęcz",
    "type": "przełęcz",
    "latitude": 49.215833333333336,
    "longitude": 19.834166666666665
  },
  {
    "name": "Ornaczański Żleb",
    "type": "żleb",
    "latitude": 49.219722222222224,
    "longitude": 19.848888888888887
  },
  {
    "name": "Ornak",
    "type": "góra, szczyt",
    "latitude": 49.21888888888889,
    "longitude": 19.833055555555557
  },
  {
    "name": "Hala Ornak",
    "type": "hala",
    "latitude": 49.22666666666667,
    "longitude": 19.85638888888889
  },
  {
    "name": "Ostry Karb",
    "type": "grań",
    "latitude": 49.25361111111111,
    "longitude": 19.944166666666668
  },
  {
    "name": "Ostry Wierch",
    "type": "góra, szczyt",
    "latitude": 49.263888888888886,
    "longitude": 20.06138888888889
  },
  {
    "name": "Owcza Przełęcz",
    "type": "przełęcz",
    "latitude": 49.19472222222222,
    "longitude": 20.084722222222222
  },
  {
    "name": "Jaskinia Owcza",
    "type": "jaskinia, grota",
    "latitude": 49.236111111111114,
    "longitude": 19.87
  },
  {
    "name": "Owczy Żleb",
    "type": "żleb",
    "latitude": 49.19333333333333,
    "longitude": 20.076944444444443
  },
  {
    "name": "Palenica",
    "type": "góra, szczyt",
    "latitude": 49.301944444444445,
    "longitude": 19.842777777777776
  },
  {
    "name": "Pańszczyca",
    "type": "dolina",
    "latitude": 49.25388888888889,
    "longitude": 20.04388888888889
  },
  {
    "name": "Pańszczycka Koleba",
    "type": "jaskinia, grota",
    "latitude": 49.230000000000004,
    "longitude": 20.040833333333335
  },
  {
    "name": "Pańszczycka Przełęcz",
    "type": "przełęcz",
    "latitude": 49.228611111111114,
    "longitude": 20.033055555555556
  },
  {
    "name": "Pańszczycka Turnia",
    "type": "góra, szczyt",
    "latitude": 49.22972222222222,
    "longitude": 20.032777777777778
  },
  {
    "name": "Pańszczycki Żleb",
    "type": "żleb",
    "latitude": 49.25083333333333,
    "longitude": 20.050555555555555
  },
  {
    "name": "Jaskinia Partyzancka Druga",
    "type": "jaskinia, grota",
    "latitude": 49.25111111111111,
    "longitude": 19.992222222222225
  },
  {
    "name": "Jaskinia Partyzancka Pierwsza",
    "type": "jaskinia, grota",
    "latitude": 49.25194444444445,
    "longitude": 19.991111111111113
  },
  {
    "name": "Parzątczak",
    "type": "góra, szczyt",
    "latitude": 49.25555555555555,
    "longitude": 19.790555555555557
  },
  {
    "name": "Piec",
    "type": "góra, szczyt",
    "latitude": 49.24861111111111,
    "longitude": 19.886944444444445
  },
  {
    "name": "Piekło",
    "type": "żleb",
    "latitude": 49.22972222222222,
    "longitude": 19.81972222222222
  },
  {
    "name": "Pieranisko",
    "type": "zbocze, stok",
    "latitude": 49.21611111111111,
    "longitude": 19.83861111111111
  },
  {
    "name": "Pieronka",
    "type": "zbocze, stok",
    "latitude": 49.275,
    "longitude": 19.90694444444444
  },
  {
    "name": "Dolina Pięciu Stawów Polskich",
    "type": "dolina",
    "latitude": 49.205555555555556,
    "longitude": 20.031944444444445
  },
  {
    "name": "Pięterka",
    "type": "zbocze, stok",
    "latitude": 49.20166666666667,
    "longitude": 20.08222222222222
  },
  {
    "name": "Piętra",
    "type": "zbocze, stok",
    "latitude": 49.20888888888889,
    "longitude": 19.823888888888888
  },
  {
    "name": "Hala Pisana",
    "type": "hala",
    "latitude": 49.24305555555556,
    "longitude": 19.86416666666667
  },
  {
    "name": "Pisaniarski Żleb",
    "type": "żleb",
    "latitude": 49.240833333333335,
    "longitude": 19.871666666666666
  },
  {
    "name": "Piszczałki",
    "type": "dolina",
    "latitude": 49.230555555555554,
    "longitude": 19.839444444444442
  },
  {
    "name": "Piszczorów Wierch",
    "type": "góra, szczyt",
    "latitude": 49.30583333333333,
    "longitude": 20.010555555555555
  },
  {
    "name": "Piwnica Miętusia",
    "type": "jaskinia, grota",
    "latitude": 49.24472222222222,
    "longitude": 19.897222222222222
  },
  {
    "name": "Płaśń pod Mnichem",
    "type": "zbocze, stok",
    "latitude": 49.198611111111106,
    "longitude": 20.060000000000002
  },
  {
    "name": "Płaśń za Kazalnicą",
    "type": "zbocze, stok",
    "latitude": 49.184999999999995,
    "longitude": 20.068055555555556
  },
  {
    "name": "Płazowski Wierch",
    "type": "góra, szczyt",
    "latitude": 49.30916666666666,
    "longitude": 19.85027777777778
  },
  {
    "name": "Jaskinia pod Baranami",
    "type": "jaskinia, grota",
    "latitude": 49.24527777777778,
    "longitude": 19.834999999999997
  },
  {
    "name": "Jaskinia pod Dachem",
    "type": "jaskinia, grota",
    "latitude": 49.24027777777778,
    "longitude": 19.90361111111111
  },
  {
    "name": "Przełęcz pod Furkaską",
    "type": "przełęcz",
    "latitude": 49.260555555555555,
    "longitude": 19.789722222222224
  },
  {
    "name": "Jaskinia pod Głazem",
    "type": "jaskinia, grota",
    "latitude": 49.2425,
    "longitude": 19.840555555555554
  },
  {
    "name": "Pod Głazy",
    "type": "zbocze, stok",
    "latitude": 49.22361111111111,
    "longitude": 20.07638888888889
  },
  {
    "name": "Jaskinia pod Iglicą",
    "type": "jaskinia, grota",
    "latitude": 49.24666666666667,
    "longitude": 19.911944444444444
  },
  {
    "name": "Jaskinia pod Kapliczką",
    "type": "jaskinia, grota",
    "latitude": 49.2425,
    "longitude": 19.84611111111111
  },
  {
    "name": "Pod Kopą Kondracką",
    "type": "przełęcz",
    "latitude": 49.23416666666667,
    "longitude": 19.93888888888889
  },
  {
    "name": "Jaskinia pod Limbą",
    "type": "jaskinia, grota",
    "latitude": 49.25222222222222,
    "longitude": 19.988055555555558
  },
  {
    "name": "Jaskinia pod Okapem",
    "type": "jaskinia, grota",
    "latitude": 49.23527777777778,
    "longitude": 19.87777777777778
  },
  {
    "name": "Jaskinia pod Progiem",
    "type": "jaskinia, grota",
    "latitude": 49.24138888888889,
    "longitude": 19.925555555555558
  },
  {
    "name": "Jaskinia pod Smoczą Jamą",
    "type": "jaskinia, grota",
    "latitude": 49.23777777777778,
    "longitude": 19.86777777777778
  },
  {
    "name": "Pod Spady",
    "type": "zbocze, stok",
    "latitude": 49.24583333333334,
    "longitude": 19.841666666666665
  },
  {
    "name": "Pod Szatrę",
    "type": "zbocze, stok",
    "latitude": 49.26694444444444,
    "longitude": 20.031666666666666
  },
  {
    "name": "Jaskinia pod Szczytem",
    "type": "jaskinia, grota",
    "latitude": 49.25277777777778,
    "longitude": 19.983055555555556
  },
  {
    "name": "Dziura pod Smrekiem",
    "type": "jaskinia, grota",
    "latitude": 49.23444444444444,
    "longitude": 19.876944444444444
  },
  {
    "name": "Jaskinia pod Wantą",
    "type": "jaskinia, grota",
    "latitude": 49.24166666666667,
    "longitude": 19.911388888888887
  },
  {
    "name": "Jaskinia pod Wierchem",
    "type": "jaskinia, grota",
    "latitude": 49.23972222222222,
    "longitude": 19.899444444444445
  },
  {
    "name": "Pod Zakosy",
    "type": "dolina",
    "latitude": 49.236666666666665,
    "longitude": 19.970555555555553
  },
  {
    "name": "Podspad",
    "type": "żleb",
    "latitude": 49.27861111111111,
    "longitude": 20.049722222222226
  },
  {
    "name": "Rów Podtatrzański",
    "type": "region naturalny",
    "latitude": 49.305277777777775,
    "longitude": 19.983333333333334
  },
  {
    "name": "Pomarańczarnia",
    "type": "jaskinia, grota",
    "latitude": 49.24527777777778,
    "longitude": 19.930833333333336
  },
  {
    "name": "Popod Perci",
    "type": "zbocze, stok",
    "latitude": 49.26083333333333,
    "longitude": 19.95722222222222
  },
  {
    "name": "Portki",
    "type": "zbocze, stok",
    "latitude": 49.24166666666667,
    "longitude": 19.939722222222223
  },
  {
    "name": "Jaskinia Poszukiwaczy Skarbów",
    "type": "jaskinia, grota",
    "latitude": 49.23694444444445,
    "longitude": 19.866111111111113
  },
  {
    "name": "Pośredni Granat",
    "type": "góra, szczyt",
    "latitude": 49.225833333333334,
    "longitude": 20.032777777777778
  },
  {
    "name": "Pośredni Smreczyński Grzbiet",
    "type": "góra, szczyt",
    "latitude": 49.219722222222224,
    "longitude": 19.878611111111113
  },
  {
    "name": "Pośredni Upłaz",
    "type": "zbocze, stok",
    "latitude": 49.222500000000004,
    "longitude": 19.828055555555554
  },
  {
    "name": "Pośredni Wierch Goryczkowy",
    "type": "góra, szczyt",
    "latitude": 49.231388888888894,
    "longitude": 19.96611111111111
  },
  {
    "name": "Pośredni Wierszyk",
    "type": "góra, szczyt",
    "latitude": 49.268055555555556,
    "longitude": 19.911388888888887
  },
  {
    "name": "Pośredni Wołoszyn",
    "type": "góra, szczyt",
    "latitude": 49.23027777777778,
    "longitude": 20.05527777777778
  },
  {
    "name": "Pośredni Żleb",
    "type": "żleb",
    "latitude": 49.221944444444446,
    "longitude": 19.821666666666665
  },
  {
    "name": "Pośrednia Kopka",
    "type": "góra, szczyt",
    "latitude": 49.26611111111111,
    "longitude": 19.852777777777778
  },
  {
    "name": "Pośrednia Równica",
    "type": "dolina",
    "latitude": 49.23638888888889,
    "longitude": 20.058333333333334
  },
  {
    "name": "Pośrednia Turnia",
    "type": "góra, szczyt",
    "latitude": 49.22222222222222,
    "longitude": 20.00111111111111
  },
  {
    "name": "Jaskinia Pośrednia",
    "type": "jaskinia, grota",
    "latitude": 49.23416666666667,
    "longitude": 19.884722222222223
  },
  {
    "name": "Pośrednie",
    "type": "zbocze, stok",
    "latitude": 49.22833333333333,
    "longitude": 19.813055555555557
  },
  {
    "name": "Potargany Źleb",
    "type": "żleb",
    "latitude": 49.259166666666665,
    "longitude": 19.948888888888888
  },
  {
    "name": "Półki",
    "type": "zbocze, stok",
    "latitude": 49.183611111111105,
    "longitude": 20.079166666666666
  },
  {
    "name": "Przeddomiański Wierch",
    "type": "wzgórze, wzniesienie",
    "latitude": 49.335,
    "longitude": 20.104722222222225
  },
  {
    "name": "Przedni Staw",
    "type": "jezioro",
    "latitude": 49.21194444444445,
    "longitude": 20.04888888888889
  },
  {
    "name": "Przednia Kopa Sołtysia",
    "type": "góra, szczyt",
    "latitude": 49.275,
    "longitude": 20.059722222222224
  },
  {
    "name": "Przednia Kopka",
    "type": "góra, szczyt",
    "latitude": 49.274166666666666,
    "longitude": 19.860833333333336
  },
  {
    "name": "Przednia Sołtysia Przełęcz",
    "type": "przełęcz",
    "latitude": 49.274166666666666,
    "longitude": 20.059722222222224
  },
  {
    "name": "Przełączka pod Kufą",
    "type": "przełęcz",
    "latitude": 49.2475,
    "longitude": 19.83861111111111
  },
  {
    "name": "Przełączka pod Zadnim Mnichem",
    "type": "przełęcz",
    "latitude": 49.18888888888888,
    "longitude": 20.051111111111112
  },
  {
    "name": "Przełączka pod Żabią Czubą",
    "type": "przełęcz",
    "latitude": 49.197222222222216,
    "longitude": 20.08611111111111
  },
  {
    "name": "Przełączka pod Żabią Lalką",
    "type": "przełęcz",
    "latitude": 49.18888888888888,
    "longitude": 20.085277777777776
  },
  {
    "name": "Przełączka przy Kopie",
    "type": "przełęcz",
    "latitude": 49.23916666666667,
    "longitude": 19.891666666666666
  },
  {
    "name": "Przełączka za Saturnem",
    "type": "przełęcz",
    "latitude": 49.23861111111111,
    "longitude": 19.874444444444446
  },
  {
    "name": "Przełęcz między Kopami",
    "type": "przełęcz",
    "latitude": 49.255,
    "longitude": 20.003611111111113
  },
  {
    "name": "Przełęcz między Kopieńcami",
    "type": "przełęcz",
    "latitude": 49.275277777777774,
    "longitude": 20.00777777777778
  },
  {
    "name": "Przełączka nad Doliną Buczynową",
    "type": "przełęcz",
    "latitude": 49.220555555555556,
    "longitude": 20.03388888888889
  },
  {
    "name": "Przełęcz nad Wrotami",
    "type": "przełęcz",
    "latitude": 49.19083333333333,
    "longitude": 20.046944444444446
  },
  {
    "name": "Przełęcz pod Rysami",
    "type": "przełęcz",
    "latitude": 49.18194444444444,
    "longitude": 20.088055555555556
  },
  {
    "name": "Jaskinia Przeziorowa",
    "type": "jaskinia, grota",
    "latitude": 49.235,
    "longitude": 19.863611111111112
  },
  {
    "name": "Jaskinia przy Grzędzie",
    "type": "jaskinia, grota",
    "latitude": 49.24138888888889,
    "longitude": 19.898888888888887
  },
  {
    "name": "Jaskinia przy Progu Mułowym",
    "type": "jaskinia, grota",
    "latitude": 49.240833333333335,
    "longitude": 19.904166666666665
  },
  {
    "name": "Jaskinia przy Przechodzie",
    "type": "jaskinia, grota",
    "latitude": 49.24138888888889,
    "longitude": 19.92388888888889
  },
  {
    "name": "Jaskinia przy Żlebie",
    "type": "jaskinia, grota",
    "latitude": 49.23888888888889,
    "longitude": 19.8625
  },
  {
    "name": "Przykra Kopa",
    "type": "góra, szczyt",
    "latitude": 49.21333333333334,
    "longitude": 19.803611111111113
  },
  {
    "name": "Przysłop Filipczański",
    "type": "góra, szczyt",
    "latitude": 49.27111111111111,
    "longitude": 20.06722222222222
  },
  {
    "name": "Przysłop Miętusi",
    "type": "przełęcz",
    "latitude": 49.26222222222222,
    "longitude": 19.893333333333334
  },
  {
    "name": "Przysłop Waksmundzki",
    "type": "przełęcz",
    "latitude": 49.257777777777775,
    "longitude": 20.073333333333334
  },
  {
    "name": "Jaskinia Psia",
    "type": "jaskinia, grota",
    "latitude": 49.23305555555556,
    "longitude": 19.872777777777777
  },
  {
    "name": "Ptak",
    "type": "góra, szczyt",
    "latitude": 49.22833333333333,
    "longitude": 20.04527777777778
  },
  {
    "name": "Ptasi Schron",
    "type": "jaskinia, grota",
    "latitude": 49.23277777777778,
    "longitude": 19.878333333333334
  },
  {
    "name": "Ptasia Studnia",
    "type": "jaskinia, grota",
    "latitude": 49.23972222222222,
    "longitude": 19.904999999999998
  },
  {
    "name": "Ptasiniec",
    "type": "dolina",
    "latitude": 49.236111111111114,
    "longitude": 19.79888888888889
  },
  {
    "name": "Pustać",
    "type": "zbocze, stok",
    "latitude": 49.230000000000004,
    "longitude": 19.83361111111111
  },
  {
    "name": "Hala Pyszna",
    "type": "hala",
    "latitude": 49.20888888888889,
    "longitude": 19.852777777777778
  },
  {
    "name": "Dolina Pyszniańska",
    "type": "dolina",
    "latitude": 49.214444444444446,
    "longitude": 19.854444444444447
  },
  {
    "name": "Pyszniańska Przełęcz",
    "type": "przełęcz",
    "latitude": 49.19638888888888,
    "longitude": 19.85638888888889
  },
  {
    "name": "Liliowy Karb",
    "type": "przełęcz",
    "latitude": 49.20111111111111,
    "longitude": 19.830277777777777
  },
  {
    "name": "Rakoń",
    "type": "góra, szczyt",
    "latitude": 49.21611111111111,
    "longitude": 19.758333333333333
  },
  {
    "name": "Raptawicka Grań",
    "type": "grań",
    "latitude": 49.23916666666667,
    "longitude": 19.856944444444444
  },
  {
    "name": "Jaskinia Raptawicka",
    "type": "jaskinia, grota",
    "latitude": 49.24,
    "longitude": 19.862222222222222
  },
  {
    "name": "Ratusz",
    "type": "góra, szczyt",
    "latitude": 49.238055555555555,
    "longitude": 19.87
  },
  {
    "name": "Ratuszowe Źródło",
    "type": "źródło",
    "latitude": 49.24333333333333,
    "longitude": 19.91777777777778
  },
  {
    "name": "Rochacz",
    "type": "zbocze, stok",
    "latitude": 49.215833333333336,
    "longitude": 19.761111111111113
  },
  {
    "name": "Ropa",
    "type": "góra, szczyt",
    "latitude": 49.22527777777778,
    "longitude": 19.79388888888889
  },
  {
    "name": "Rosochowate",
    "type": "zbocze, stok",
    "latitude": 49.265277777777776,
    "longitude": 19.833055555555557
  },
  {
    "name": "Rosochowate Siodło",
    "type": "przełęcz",
    "latitude": 49.264722222222225,
    "longitude": 19.834444444444443
  },
  {
    "name": "Rosochowaty Źleb",
    "type": "żleb",
    "latitude": 49.268055555555556,
    "longitude": 19.831944444444446
  },
  {
    "name": "Roztocka Czuba",
    "type": "góra, szczyt",
    "latitude": 49.22888888888889,
    "longitude": 20.090833333333332
  },
  {
    "name": "Roztockie Siodło",
    "type": "przełęcz",
    "latitude": 49.227222222222224,
    "longitude": 20.090555555555554
  },
  {
    "name": "Roztoka Stawiańska",
    "type": "zbocze, stok",
    "latitude": 49.236666666666665,
    "longitude": 20.002222222222223
  },
  {
    "name": "Dolina Roztoki",
    "type": "dolina",
    "latitude": 49.224444444444444,
    "longitude": 20.072222222222223
  },
  {
    "name": "Równica",
    "type": "zbocze, stok",
    "latitude": 49.23916666666667,
    "longitude": 20.064444444444444
  },
  {
    "name": "Ruda Nyża",
    "type": "jaskinia, grota",
    "latitude": 49.251666666666665,
    "longitude": 19.940833333333334
  },
  {
    "name": "Jaskinia Rybia",
    "type": "jaskinia, grota",
    "latitude": 49.24611111111111,
    "longitude": 19.8125
  },
  {
    "name": "Rybie Stawki",
    "type": "jeziora",
    "latitude": 49.20305555555556,
    "longitude": 20.071666666666665
  },
  {
    "name": "Dolina Rybiego Potoku",
    "type": "dolina",
    "latitude": 49.21138888888889,
    "longitude": 20.078888888888887
  },
  {
    "name": "Rynna",
    "type": "żleb",
    "latitude": 49.2525,
    "longitude": 19.989166666666666
  },
  {
    "name": "Rysa Zaruskiego",
    "type": "żleb",
    "latitude": 49.22,
    "longitude": 20.031944444444445
  },
  {
    "name": "Rystoki",
    "type": "zbocze, stok",
    "latitude": 49.21222222222222,
    "longitude": 19.797500000000003
  },
  {
    "name": "Rysy",
    "type": "góra, szczyt",
    "latitude": 49.17972222222222,
    "longitude": 20.088055555555556
  },
  {
    "name": "Rzeżuchy",
    "type": "zbocze, stok",
    "latitude": 49.217777777777776,
    "longitude": 20.05138888888889
  },
  {
    "name": "Tomanowe Rzędy",
    "type": "zbocze, stok",
    "latitude": 49.22916666666667,
    "longitude": 19.898055555555555
  },
  {
    "name": "Samkowa Czuba",
    "type": "góra, szczyt",
    "latitude": 49.27222222222222,
    "longitude": 19.92666666666667
  },
  {
    "name": "Samkowe Siodło",
    "type": "przełęcz",
    "latitude": 49.27055555555555,
    "longitude": 19.926111111111112
  },
  {
    "name": "Samotniak",
    "type": "jezioro",
    "latitude": 49.238055555555555,
    "longitude": 19.997500000000002
  },
  {
    "name": "Sarnia Skała",
    "type": "góra, szczyt",
    "latitude": 49.26444444444444,
    "longitude": 19.941111111111113
  },
  {
    "name": "Saturn",
    "type": "góra, szczyt",
    "latitude": 49.23888888888889,
    "longitude": 19.871944444444445
  },
  {
    "name": "Schodki",
    "type": "przełęcz",
    "latitude": 49.215833333333336,
    "longitude": 20.020555555555553
  },
  {
    "name": "Schron w Wielkich Koryciskach",
    "type": "jaskinia, grota",
    "latitude": 49.269444444444446,
    "longitude": 19.803055555555556
  },
  {
    "name": "Schron przy Suchym Biwaku",
    "type": "jaskinia, grota",
    "latitude": 49.243611111111115,
    "longitude": 19.840277777777775
  },
  {
    "name": "Schron przy Jaskini Troistej Drugi",
    "type": "jaskinia, grota",
    "latitude": 49.24055555555556,
    "longitude": 19.836666666666666
  },
  {
    "name": "Siacisko",
    "type": "zbocze, stok",
    "latitude": 49.24722222222222,
    "longitude": 19.95777777777778
  },
  {
    "name": "Siedem Granatów",
    "type": "grań",
    "latitude": 49.20194444444445,
    "longitude": 20.086666666666666
  },
  {
    "name": "Siklawa",
    "type": "wodospad",
    "latitude": 49.21416666666667,
    "longitude": 20.04388888888889
  },
  {
    "name": "Siklawica",
    "type": "wodospad",
    "latitude": 49.259166666666665,
    "longitude": 19.93027777777778
  },
  {
    "name": "Siklawiczny Źleb",
    "type": "żleb",
    "latitude": 49.26111111111111,
    "longitude": 20.003611111111113
  },
  {
    "name": "Siodło Południowe",
    "type": "przełęcz",
    "latitude": 49.19194444444444,
    "longitude": 20.084999999999997
  },
  {
    "name": "Siwa Przełęcz",
    "type": "przełęcz",
    "latitude": 49.20527777777778,
    "longitude": 19.83361111111111
  },
  {
    "name": "Siwarne",
    "type": "zbocze, stok",
    "latitude": 49.23777777777778,
    "longitude": 20.088055555555556
  },
  {
    "name": "Siwarny Żleb",
    "type": "żleb",
    "latitude": 49.23777777777778,
    "longitude": 20.078611111111112
  },
  {
    "name": "Siwarowa Dziura",
    "type": "jaskinia, grota",
    "latitude": 49.24861111111111,
    "longitude": 19.914166666666667
  },
  {
    "name": "Siwarowa Przełęcz",
    "type": "przełęcz",
    "latitude": 49.24888888888889,
    "longitude": 19.90888888888889
  },
  {
    "name": "Siwarowe Siodło",
    "type": "przełęcz",
    "latitude": 49.26555555555556,
    "longitude": 19.964166666666667
  },
  {
    "name": "Siwarowy Żleb",
    "type": "żleb",
    "latitude": 49.26777777777777,
    "longitude": 19.95722222222222
  },
  {
    "name": "Siwe Sady",
    "type": "zbocze, stok",
    "latitude": 49.2025,
    "longitude": 19.842499999999998
  },
  {
    "name": "Siwe Stawki",
    "type": "jezioro",
    "latitude": 49.20444444444445,
    "longitude": 19.835555555555555
  },
  {
    "name": "Siwe Turnie",
    "type": "grań",
    "latitude": 49.20277777777778,
    "longitude": 19.83138888888889
  },
  {
    "name": "Skalnisty Żleb",
    "type": "żleb",
    "latitude": 49.22666666666667,
    "longitude": 20.06416666666667
  },
  {
    "name": "Skalnite",
    "type": "dolina",
    "latitude": 49.27361111111111,
    "longitude": 20.05138888888889
  },
  {
    "name": "Skorusi Żleb",
    "type": "żleb",
    "latitude": 49.24138888888889,
    "longitude": 19.793333333333337
  },
  {
    "name": "Skoruśniak",
    "type": "góra, szczyt",
    "latitude": 49.254444444444445,
    "longitude": 19.90222222222222
  },
  {
    "name": "Jaskinia Skośna",
    "type": "jaskinia, grota",
    "latitude": 49.24277777777778,
    "longitude": 19.839444444444442
  },
  {
    "name": "Skośne Wolarnie",
    "type": "zbocze, stok",
    "latitude": 49.21333333333334,
    "longitude": 19.830277777777777
  },
  {
    "name": "Skrajna Pańszczycka Czuba",
    "type": "góra, szczyt",
    "latitude": 49.22805555555556,
    "longitude": 20.033611111111114
  },
  {
    "name": "Skrajna Przełęcz",
    "type": "przełęcz",
    "latitude": 49.22222222222222,
    "longitude": 19.999166666666667
  },
  {
    "name": "Skrajna Rosocha",
    "type": "góra, szczyt",
    "latitude": 49.26555555555556,
    "longitude": 19.83611111111111
  },
  {
    "name": "Skrajna Sucha Dolina Smreczyńska",
    "type": "dolina",
    "latitude": 49.21611111111111,
    "longitude": 19.878333333333334
  },
  {
    "name": "Skrajna Turnia",
    "type": "góra, szczyt",
    "latitude": 49.223055555555554,
    "longitude": 19.998055555555556
  },