[
  {
    "name": "Adamica",
    "type": "zbocze, stok",
    "latitude": 49.15,
    "longitude": 19.52
  },
  {
    "name": "Jantałowski Potok",
    "type": "potok",
    "latitude": 49.17,
    "longitude": 19.51
  },
  {
    "name": "Antałówka",
    "type": "wzgórze, wzniesienie",
    "latitude": 49.17,
    "longitude": 19.58
  },
  {
    "name": "Grań Apostołów",
    "type": "grań",
    "latitude": 49.11,
    "longitude": 20.04
  },
  {
    "name": "Augustynówka",
    "type": "zbocze, stok",
    "latitude": 49.19,
    "longitude": 20.08
  },
  {
    "name": "Awen w Ratuszu",
    "type": "jaskinia, grota",
    "latitude": 49.14,
    "longitude": 19.55
  },
  {
    "name": "Awen z Korkiem Śnieżnym",
    "type": "jaskinia, grota",
    "latitude": 49.14,
    "longitude": 19.55
  },
  {
    "name": "Baba",
    "type": "skała",
    "latitude": 49.16,
    "longitude": 19.59
  },
  {
    "name": "Babi Grzbiet",
    "type": "grań",
    "latitude": 49.12,
    "longitude": 19.51
  },
  {
    "name": "Babi Potok",
    "type": "potok",
    "latitude": 49.12,
    "longitude": 19.51
  },
  {
    "name": "Babie Nogi",
    "type": "żleb",
    "latitude": 49.12,
    "longitude": 19.51
  },
  {
    "name": "Bachledów Potok",
    "type": "potok",
    "latitude": 49.2,
    "longitude": 20.05
  },
  {
    "name": "Bachledów Wierch",
    "type": "wzgórze, wzniesienie",
    "latitude": 49.2,
    "longitude": 20.04
  },
  {
    "name": "Bachledówka",
    "type": "góra, szczyt",
    "latitude": 49.22,
    "longitude": 19.55
  },
  {
    "name": "Bachledzki Potok",
    "type": "potok",
    "latitude": 49.19,
    "longitude": 19.58
  },
  {
    "name": "Bachledzki Wierch",
    "type": "góra, szczyt",
    "latitude": 49.18,
    "longitude": 19.58
  },
  {
    "name": "Bacowa Skała",
    "type": "skała",
    "latitude": 49.13,
    "longitude": 20.02
  },
  {
    "name": "Bacowski Żleb",
    "type": "żleb",
    "latitude": 49.14,
    "longitude": 20.02
  },
  {
    "name": "Bacuch",
    "type": "łąki",
    "latitude": 49.23,
    "longitude": 19.48
  },
  {
    "name": "Bafiówki",
    "type": "polana",
    "latitude": 49.18,
    "longitude": 20.03
  },
  {
    "name": "Baligówka",
    "type": "polana",
    "latitude": 49.18,
    "longitude": 19.5
  },
  {
    "name": "Balówka",
    "type": "góra, szczyt",
    "latitude": 49.3,
    "longitude": 19.51
  },
  {
    "name": "Bałuchów",
    "type": "potok",
    "latitude": 49.27,
    "longitude": 20.19
  },
  {
    "name": "Bałyże",
    "type": "łąki",
    "latitude": 49.22,
    "longitude": 20.15
  },
  {
    "name": "Bałda",
    "type": "zbocze, stok",
    "latitude": 49.14,
    "longitude": 19.59
  },
  {
    "name": "Bańdzioch Kominiarski",
    "type": "jaskinia, grota",
    "latitude": 49.14,
    "longitude": 19.5
  },
  {
    "name": "Bania",
    "type": "wzgórze, wzniesienie",
    "latitude": 49.23,
    "longitude": 20.05
  },
  {
    "name": "Banie",
    "type": "góra, szczyt",
    "latitude": 49.15,
    "longitude": 19.49
  },
  {
    "name": "Banista Przełączka",
    "type": "przełęcz",
    "latitude": 49.11,
    "longitude": 19.5
  },
  {
    "name": "Baniste",
    "type": "zbocze, stok",
    "latitude": 49.13,
    "longitude": 19.49
  },
  {
    "name": "Banisty Żleb",
    "type": "żleb",
    "latitude": 49.13,
    "longitude": 19.49
  },
  {
    "name": "Barani Żleb",
    "type": "żleb",
    "latitude": 49.14,
    "longitude": 20.02
  },
  {
    "name": "Jaskinia Barania",
    "type": "jaskinia, grota",
    "latitude": 49.14,
    "longitude": 19.54
  },
  {
    "name": "Baraniarka",
    "type": "wąwóz",
    "latitude": 49.14,
    "longitude": 19.51
  },
  {
    "name": "Barbarowski",
    "type": "potok",
    "latitude": 49.21,
    "longitude": 20.11
  },
  {
    "name": "Barborzyna",
    "type": "polana",
    "latitude": 49.33,
    "longitude": 19.2
  },
  {
    "name": "Barć",
    "type": "łąki",
    "latitude": 49.31,
    "longitude": 20.19
  },
  {
    "name": "Bartoszowa Polana",
    "type": "polana",
    "latitude": 49.32,
    "longitude": 19.34
  },
  {
    "name": "Bartuska",
    "type": "góra, szczyt",
    "latitude": 49.25,
    "longitude": 20.17
  },
  {
    "name": "Barwinkowa",
    "type": "góra, szczyt",
    "latitude": 49.24,
    "longitude": 20.15
  },
  {
    "name": "Basiorów Potok",
    "type": "potok",
    "latitude": 49.18,
    "longitude": 19.48
  },
  {
    "name": "Basiorówka",
    "type": "polana",
    "latitude": 49.17,
    "longitude": 19.48
  },
  {
    "name": "Bastówka",
    "type": "hala",
    "latitude": 49.33,
    "longitude": 19.11
  },
  {
    "name": "Bednarski Kamieniec",
    "type": "łąki",
    "latitude": 49.22,
    "longitude": 20.03
  },
  {
    "name": "Byndyk",
    "type": "góra, szczyt",
    "latitude": 49.24,
    "longitude": 20.16
  },
  {
    "name": "Przednie Bereki",
    "type": "łąki",
    "latitude": 49.24,
    "longitude": 20.07
  },
  {
    "name": "Bernadowa",
    "type": "polana",
    "latitude": 49.31,
    "longitude": 20.02
  },
  {
    "name": "Beskid",
    "type": "góra, szczyt",
    "latitude": 49.13,
    "longitude": 19.59
  },
  {
    "name": "Beskid Orawsko-Podhalański",
    "type": "region naturalny",
    "latitude": 49.33,
    "longitude": 19.48
  },
  {
    "name": "Beskid Żywiecki",
    "type": "góry",
    "latitude": 49.33,
    "longitude": 19.14
  },
  {
    "name": "Krowiarki",
    "type": "góra, szczyt",
    "latitude": 49.21,
    "longitude": 19.48
  },
  {
    "name": "Bębeński",
    "type": "potok",
    "latitude": 49.32,
    "longitude": 19.44
  },
  {
    "name": "Biała Przybylanka",
    "type": "potok",
    "latitude": 49.18,
    "longitude": 19.5
  },
  {
    "name": "Biała Skała",
    "type": "skała",
    "latitude": 49.25,
    "longitude": 20.18
  },
  {
    "name": "Biała Turnia",
    "type": "skała",
    "latitude": 49.15,
    "longitude": 19.54
  },
  {
    "name": "Biała Woda",
    "type": "potok",
    "latitude": 49.28,
    "longitude": 19.46
  },
  {
    "name": "Białczańska Przełęcz",
    "type": "przełęcz",
    "latitude": 49.11,
    "longitude": 20.05
  },
  {
    "name": "Białczańska Przełęcz Wyżnia",
    "type": "przełęcz",
    "latitude": 49.11,
    "longitude": 20.05
  },
  {
    "name": "Białczańska Kopka",
    "type": "góra, szczyt",
    "latitude": 49.11,
    "longitude": 20.05
  },
  {
    "name": "Białe Skałki",
    "type": "zbocze, stok",
    "latitude": 49.13,
    "longitude": 19.47
  },
  {
    "name": "Dolina Białego",
    "type": "dolina",
    "latitude": 49.16,
    "longitude": 19.57
  },
  {
    "name": "Białe",
    "type": "hala",
    "latitude": 49.15,
    "longitude": 19.56
  },
  {
    "name": "Polana Białego",
    "type": "polana",
    "latitude": 49.17,
    "longitude": 19.54
  },
  {
    "name": "Białka",
    "type": "rzeka",
    "latitude": 49.27,
    "longitude": 20.13
  },
  {
    "name": "Dolina Białki",
    "type": "region naturalny",
    "latitude": 49.15,
    "longitude": 20.06
  },
  {
    "name": "Białoniowski Potok",
    "type": "potok",
    "latitude": 49.32,
    "longitude": 20.0
  },
  {
    "name": "Biały Dunajec",
    "type": "rzeka",
    "latitude": 49.29,
    "longitude": 20.02
  },
  {
    "name": "Biały Piarżek",
    "type": "piarg",
    "latitude": 49.11,
    "longitude": 20.04
  },
  {
    "name": "Biały Potok",
    "type": "potok",
    "latitude": 49.17,
    "longitude": 19.56
  },
  {
    "name": "Biały Żleb",
    "type": "żleb",
    "latitude": 49.13,
    "longitude": 20.03
  },
  {
    "name": "Biały Żlebek",
    "type": "żleb",
    "latitude": 49.12,
    "longitude": 20.04
  },
  {
    "name": "Bieguńska",
    "type": "hala",
    "latitude": 49.31,
    "longitude": 19.12
  },
  {
    "name": "Bielawski Groń",
    "type": "góra, szczyt",
    "latitude": 49.33,
    "longitude": 19.39
  },
  {
    "name": "Bieniowa",
    "type": "polana",
    "latitude": 49.33,
    "longitude": 20.12
  },
  {
    "name": "Bieńkowski Wierch",
    "type": "wzgórze, wzniesienie",
    "latitude": 49.2,
    "longitude": 20.05
  },
  {
    "name": "Bigosowa Skałka",
    "type": "góra, szczyt",
    "latitude": 49.25,
    "longitude": 20.11
  },
  {
    "name": "Blachowski Potok",
    "type": "potok",
    "latitude": 49.17,
    "longitude": 19.55
  },
  {
    "name": "Blesówka",
    "type": "polana",
    "latitude": 49.33,
    "longitude": 19.22
  },
  {
    "name": "Blistówka",
    "type": "góra, szczyt",
    "latitude": 49.3,
    "longitude": 19.57
  },
  {
    "name": "Bliźnia Góra",
    "type": "góra, szczyt",
    "latitude": 49.23,
    "longitude": 20.11
  },
  {
    "name": "Bliźniacza Studnia",
    "type": "jaskinia, grota",
    "latitude": 49.14,
    "longitude": 19.55
  },
  {
    "name": "Bliźniaczy Komin",
    "type": "jaskinia, grota",
    "latitude": 49.14,
    "longitude": 19.54
  },
  {
    "name": "Błaskowa Polana",
    "type": "polana",
    "latitude": 49.29,
    "longitude": 20.15
  },
  {
    "name": "Błaszczki",
    "type": "potok",
    "latitude": 49.3,
    "longitude": 20.15
  },
  {
    "name": "Jaskinia Błotna",
    "type": "jaskinia, grota",
    "latitude": 49.14,
    "longitude": 19.54
  },
  {
    "name": "Błyszcz",
    "type": "góra, szczyt",
    "latitude": 49.11,
    "longitude": 19.5
  },
  {
    "name": "Bobków Potok",
    "type": "potok",
    "latitude": 49.17,
    "longitude": 19.51
  },
  {
    "name": "Bobrowiec",
    "type": "góra, szczyt",
    "latitude": 49.14,
    "longitude": 19.47
  },
  {
    "name": "Bobrowiecka Przełęcz",
    "type": "przełęcz",
    "latitude": 49.14,
    "longitude": 19.46
  },
  {
    "name": "Bobrowiecki Potok",
    "type": "potok",
    "latitude": 49.14,
    "longitude": 19.47
  },
  {
    "name": "Bobrowiecki Upłaz",
    "type": "zbocze, stok",
    "latitude": 49.14,
    "longitude": 19.46
  },
  {
    "name": "Bobrowiecki Żleb",
    "type": "żleb",
    "latitude": 49.14,
    "longitude": 19.46
  },
  {
    "name": "Bocławie",
    "type": "góra, szczyt",
    "latitude": 49.33,
    "longitude": 20.19
  },
  {
    "name": "Boczań",
    "type": "góra, szczyt",
    "latitude": 49.15,
    "longitude": 19.59
  },
  {
    "name": "Boczań Kasprowy",
    "type": "zbocze, stok",
    "latitude": 49.15,
    "longitude": 19.58
  },
  {
    "name": "Boracza",
    "type": "potok",
    "latitude": 49.33,
    "longitude": 19.11
  },
  {
    "name": "Boraczy Wierch",
    "type": "góra, szczyt",
    "latitude": 49.31,
    "longitude": 19.11
  },
  {
    "name": "Borczak",
    "type": "potok",
    "latitude": 49.28,
    "longitude": 19.41
  },
  {
    "name": "Borczaki",
    "type": "łąki",
    "latitude": 49.23,
    "longitude": 20.05
  },
  {
    "name": "Borek",
    "type": "przełęcz",
    "latitude": 49.33,
    "longitude": 20.08
  },
  {
    "name": "Borki",
    "type": "łąki",
    "latitude": 49.2,
    "longitude": 19.5
  },
  {
    "name": "Borowy",
    "type": "potok",
    "latitude": 49.28,
    "longitude": 19.42
  },
  {
    "name": "Borowy Potok",
    "type": "potok",
    "latitude": 49.31,
    "longitude": 19.48
  },
  {
    "name": "Borsuczyzna",
    "type": "polana",
    "latitude": 49.29,
    "longitude": 20.19
  },
  {
    "name": "Borsuczyzny",
    "type": "góra, szczyt",
    "latitude": 49.31,
    "longitude": 20.11
  },
  {
    "name": "Borsukowa Skała",
    "type": "skała",
    "latitude": 49.25,
    "longitude": 20.1
  },
  {
    "name": "Bory",
    "type": "torfowiska",
    "latitude": 49.28,
    "longitude": 19.51
  },
  {
    "name": "Bory Miętusie",
    "type": "łąki",
    "latitude": 49.24,
    "longitude": 19.5
  },
  {
    "name": "Bór",
    "type": "torfowiska",
    "latitude": 49.23,
    "longitude": 19.48
  },
  {
    "name": "Brama Kantaka",
    "type": "brama",
    "latitude": 49.16,
    "longitude": 19.52
  },
  {
    "name": "Brama Kraszewskiego",
    "type": "brama",
    "latitude": 49.15,
    "longitude": 19.52
  },
  {
    "name": "Brandysia",
    "type": "polana",
    "latitude": 49.32,
    "longitude": 19.11
  },
  {
    "name": "Grzbiet Braniska-Humbargu",
    "type": "góry",
    "latitude": 49.25,
    "longitude": 20.14
  },
  {
    "name": "Branisko",
    "type": "potok",
    "latitude": 49.26,
    "longitude": 20.14
  },
  {
    "name": "Broniarski Żleb",
    "type": "żleb",
    "latitude": 49.16,
    "longitude": 20.03
  },
  {
    "name": "Brycelski Potok",
    "type": "potok",
    "latitude": 49.2,
    "longitude": 19.49
  },
  {
    "name": "Cebulowski Potok",
    "type": "potok",
    "latitude": 49.23,
    "longitude": 20.06
  },
  {
    "name": "Bryjów Potok",
    "type": "potok",
    "latitude": 49.21,
    "longitude": 20.07
  },
  {
    "name": "Brylówka",
    "type": "polana",
    "latitude": 49.16,
    "longitude": 19.59
  },
  {
    "name": "Brzeg",
    "type": "zbocze, stok",
    "latitude": 49.24,
    "longitude": 20.06
  },
  {
    "name": "Brzegi Podczerwieńskie",
    "type": "skarpa",
    "latitude": 49.24,
    "longitude": 19.5
  },
  {
    "name": "Brzeźniaki",
    "type": "łąki",
    "latitude": 49.28,
    "longitude": 19.49
  },
  {
    "name": "Brzuchaty Piarg",
    "type": "piarg",
    "latitude": 49.12,
    "longitude": 20.02
  },
  {
    "name": "Bucznik",
    "type": "góra, szczyt",
    "latitude": 49.25,
    "longitude": 19.55
  },
  {
    "name": "Buczynka",
    "type": "polana",
    "latitude": 49.33,
    "longitude": 19.12
  },
  {
    "name": "Buczynowa Dolinka",
    "type": "dolina",
    "latitude": 49.13,
    "longitude": 20.02
  },
  {
    "name": "Buczynowa Koleba",
    "type": "jaskinia, grota",
    "latitude": 49.13,
    "longitude": 20.02
  },
  {
    "name": "Buczynowa Przełęcz",
    "type": "przełęcz",
    "latitude": 49.13,
    "longitude": 20.02
  },
  {
    "name": "Buczynowa Siklawa",
    "type": "wodospad",
    "latitude": 49.13,
    "longitude": 20.02
  },
  {
    "name": "Buczynowa Strażnica",
    "type": "góra, szczyt",
    "latitude": 49.13,
    "longitude": 20.02
  },
  {
    "name": "Buczynowa Turniczka",
    "type": "góra, szczyt",
    "latitude": 49.13,
    "longitude": 20.02
  },
  {
    "name": "Buczynowe Turnie",
    "type": "pasmo górskie",
    "latitude": 49.13,
    "longitude": 20.02
  },
  {
    "name": "Budzów Potok",
    "type": "potok",
    "latitude": 49.19,
    "longitude": 20.01
  },
  {
    "name": "Budzów Wierch",
    "type": "wzgórze, wzniesienie",
    "latitude": 49.18,
    "longitude": 20.02
  },
  {
    "name": "Bugajski Potok",
    "type": "potok",
    "latitude": 49.2,
    "longitude": 19.49
  },
  {
    "name": "Bukowina",
    "type": "polana",
    "latitude": 49.32,
    "longitude": 20.01
  },
  {
    "name": "Bukowinka",
    "type": "góra, szczyt",
    "latitude": 49.29,
    "longitude": 20.11
  },
  {
    "name": "Bukowinki",
    "type": "polana",
    "latitude": 49.3,
    "longitude": 20.15
  },
  {
    "name": "Podszklanka",
    "type": "potok",
    "latitude": 49.32,
    "longitude": 19.44
  },
  {
    "name": "Bukowiński Dział",
    "type": "góra, szczyt",
    "latitude": 49.31,
    "longitude": 19.5
  },
  {
    "name": "Pogórze Bukowińskie",
    "type": "pogórze",
    "latitude": 49.19,
    "longitude": 20.04
  },
  {
    "name": "Bula pod Rysami",
    "type": "góra, szczyt",
    "latitude": 49.1,
    "longitude": 20.04
  },
  {
    "name": "Potok Bustryczański",
    "type": "potok",
    "latitude": 49.21,
    "longitude": 20.0
  },
  {
    "name": "Butorowska Woda",
    "type": "potok",
    "latitude": 49.16,
    "longitude": 20.02
  },
  {
    "name": "Butorowski Potok",
    "type": "potok",
    "latitude": 49.16,
    "longitude": 19.53
  },
  {
    "name": "Butorowy Wierch",
    "type": "góra, szczyt",
    "latitude": 49.18,
    "longitude": 19.54
  },
  {
    "name": "Byk",
    "type": "góra, szczyt",
    "latitude": 49.33,
    "longitude": 19.2
  },
  {
    "name": "Bystra",
    "type": "potok",
    "latitude": 49.18,
    "longitude": 19.57
  },
  {
    "name": "Jaskinia Bystra",
    "type": "jaskinia, grota",
    "latitude": 49.15,
    "longitude": 19.58
  },
  {
    "name": "Dolina Bystrej",
    "type": "dolina",
    "latitude": 49.16,
    "longitude": 19.58
  },
  {
    "name": "Bystry",
    "type": "potok",
    "latitude": 49.24,
    "longitude": 19.53
  },
  {
    "name": "Bzdyczy Wierch",
    "type": "wzgórze, wzniesienie",
    "latitude": 49.2,
    "longitude": 19.49
  },
  {
    "name": "Bzdyków Potok",
    "type": "potok",
    "latitude": 49.18,
    "longitude": 19.48
  },
  {
    "name": "Bzdykówka",
    "type": "polana",
    "latitude": 49.18,
    "longitude": 19.47
  },
  {
    "name": "Cabański Potok",
    "type": "potok",
    "latitude": 49.2,
    "longitude": 20.06
  },
  {
    "name": "Cachowskie",
    "type": "polana",
    "latitude": 49.32,
    "longitude": 20.06
  },
  {
    "name": "Capik",
    "type": "grań",
    "latitude": 49.14,
    "longitude": 19.49
  },
  {
    "name": "Hala Cebulowa",
    "type": "hala",
    "latitude": 49.32,
    "longitude": 19.18
  },
  {
    "name": "W Cebuli",
    "type": "potok",
    "latitude": 49.33,
    "longitude": 19.16
  },
  {
    "name": "Centralne Karpaty Zachodnie",
    "type": "region naturalny",
    "latitude": 49.21,
    "longitude": 20.0
  },
  {
    "name": "Cerla",
    "type": "polana",
    "latitude": 49.33,
    "longitude": 19.12
  },
  {
    "name": "Certez",
    "type": "polana",
    "latitude": 49.31,
    "longitude": 20.08
  },
  {
    "name": "Cesarka",
    "type": "żleb",
    "latitude": 49.14,
    "longitude": 20.02
  },
  {
    "name": "Charczynka",
    "type": "potok",
    "latitude": 49.29,
    "longitude": 19.58
  },
  {
    "name": "Polana Chariasowa",
    "type": "polana",
    "latitude": 49.33,
    "longitude": 19.2
  },
  {
    "name": "Hełdakowa Grapa",
    "type": "urwisko",
    "latitude": 49.22,
    "longitude": 20.07
  },
  {
    "name": "Chłabowski Potok",
    "type": "potok",
    "latitude": 49.17,
    "longitude": 19.59
  },
  {
    "name": "Chłopek",
    "type": "góra, szczyt",
    "latitude": 49.11,
    "longitude": 20.03
  },
  {
    "name": "Chochołowska Polana",
    "type": "polana",
    "latitude": 49.14,
    "longitude": 19.47
  },
  {
    "name": "Dolina Chochołowska",
    "type": "dolina",
    "latitude": 49.15,
    "longitude": 19.48
  },
  {
    "name": "Chochołowski Potok",
    "type": "potok",
    "latitude": 49.16,
    "longitude": 19.48
  },
  {
    "name": "Chochołów Potok",
    "type": "potok",
    "latitude": 49.21,
    "longitude": 19.52
  },
  {
    "name": "Chojnice",
    "type": "łąka",
    "latitude": 49.28,
    "longitude": 19.55
  },
  {
    "name": "Potok Chorów",
    "type": "potok",
    "latitude": 49.29,
    "longitude": 19.53
  },
  {
    "name": "Polana Chowańcowa",
    "type": "polana",
    "latitude": 49.19,
    "longitude": 20.01
  },
  {
    "name": "Chowańców Potok",
    "type": "potok",
    "latitude": 49.19,
    "longitude": 20.01
  },
  {
    "name": "Chrobaków Potok",
    "type": "potok",
    "latitude": 49.21,
    "longitude": 19.49
  },
  {
    "name": "Góra Chrobowska",
    "type": "góra, szczyt",
    "latitude": 49.3,
    "longitude": 20.09
  },
  {
    "name": "Chuda Mnichowa Studnia",
    "type": "jaskinia, grota",
    "latitude": 49.14,
    "longitude": 19.55
  },
  {
    "name": "Chuda Przełączka",
    "type": "przełęcz",
    "latitude": 49.14,
    "longitude": 19.53
  },
  {
    "name": "Chuda Turnia",
    "type": "góra, szczyt",
    "latitude": 49.14,
    "longitude": 19.53
  },
  {
    "name": "Chwastów Potok",
    "type": "potok",
    "latitude": 49.28,
    "longitude": 20.09
  },
  {
    "name": "Chyców Potok",
    "type": "potok",
    "latitude": 49.18,
    "longitude": 19.58
  },
  {
    "name": "Chyżnik",
    "type": "potok",
    "latitude": 49.27,
    "longitude": 19.38
  },
  {
    "name": "Chyżny",
    "type": "potok",
    "latitude": 49.26,
    "longitude": 19.38
  },
  {
    "name": "Jaskinia Ciasna",
    "type": "jaskinia, grota",
    "latitude": 49.14,
    "longitude": 19.52
  },
  {
    "name": "Polana Cicha",
    "type": "polana",
    "latitude": 49.17,
    "longitude": 19.49
  },
  {
    "name": "Cicha Woda",
    "type": "rzeka",
    "latitude": 49.17,
    "longitude": 19.56
  },
  {
    "name": "Polana Cichulowa",
    "type": "polana",
    "latitude": 49.32,
    "longitude": 20.02
  },
  {
    "name": "Ciche",
    "type": "potok",
    "latitude": 49.24,
    "longitude": 19.53
  },
  {
    "name": "Cichy Groń",
    "type": "góra, szczyt",
    "latitude": 49.31,
    "longitude": 19.34
  },
  {
    "name": "Cichy Potok",
    "type": "potok",
    "latitude": 49.31,
    "longitude": 19.35
  },
  {
    "name": "Cielęce Tańce",
    "type": "zbocze, stok",
    "latitude": 49.12,
    "longitude": 19.48
  },
  {
    "name": "Ciemniaczek",
    "type": "wąwóz",
    "latitude": 49.15,
    "longitude": 19.48
  },
  {
    "name": "Ciemniak",
    "type": "góra, szczyt",
    "latitude": 49.13,
    "longitude": 19.54
  },
  {
    "name": "Ciemnisty Żleb",
    "type": "żleb",
    "latitude": 49.13,
    "longitude": 20.04
  },
  {
    "name": "Ciemnosmreczyńska Przełączka",
    "type": "przełęcz",
    "latitude": 49.11,
    "longitude": 20.02
  },
  {
    "name": "Ciemnosmreczyńska Turnia",
    "type": "góra, szczyt",
    "latitude": 49.11,
    "longitude": 20.02
  },
  {
    "name": "Ciemny Żleb",
    "type": "żleb",
    "latitude": 49.14,
    "longitude": 19.47
  },
  {
    "name": "Cienka Skałka",
    "type": "skała",
    "latitude": 49.14,
    "longitude": 19.52
  },
  {
    "name": "Potok Ciepielowski",
    "type": "potok",
    "latitude": 49.3,
    "longitude": 20.13
  },
  {
    "name": "Ciepłówka",
    "type": "polana",
    "latitude": 49.18,
    "longitude": 19.51
  },
  {
    "name": "Ciężka Przełączka",
    "type": "przełęcz",
    "latitude": 49.11,
    "longitude": 20.05
  },
  {
    "name": "Cikówka",
    "type": "łąka",
    "latitude": 49.17,
    "longitude": 19.51
  },
  {
    "name": "Cimsgrunt",
    "type": "zagłębienie",
    "latitude": 49.21,
    "longitude": 20.17
  },
  {
    "name": "Cioski",
    "type": "polana",
    "latitude": 49.32,
    "longitude": 20.09
  },
  {
    "name": "Ciptowski Wierch",
    "type": "góra, szczyt",
    "latitude": 49.21,
    "longitude": 20.12
  },
  {
    "name": "Gisowa Skałka",
    "type": "skała",
    "latitude": 49.26,
    "longitude": 20.06
  },
  {
    "name": "Cisowa Turnia",
    "type": "skała",
    "latitude": 49.16,
    "longitude": 19.5
  },
  {
    "name": "Cisowy Potok",
    "type": "potok",
    "latitude": 49.33,
    "longitude": 20.19
  },
  {
    "name": "Cubryna",
    "type": "góra, szczyt",
    "latitude": 49.11,
    "longitude": 20.03
  },
  {
    "name": "Cudakowa Polana",
    "type": "polana",
    "latitude": 49.15,
    "longitude": 19.52
  },
  {
    "name": "Cudzichowa",
    "type": "hala",
    "latitude": 49.32,
    "longitude": 19.17
  },
  {
    "name": "Cyrbuska",
    "type": "potok",
    "latitude": 49.22,
    "longitude": 20.17
  },
  {
    "name": "Cycenówki",
    "type": "łąka",
    "latitude": 49.31,
    "longitude": 20.17
  },
  {
    "name": "Cyganka",
    "type": "skała",
    "latitude": 49.15,
    "longitude": 19.58
  },
  {
    "name": "Cyrchle",
    "type": "polana",
    "latitude": 49.3,
    "longitude": 20.16
  },
  {
    "name": "Cyrla nad Białką",
    "type": "wzgórze, wzniesienie",
    "latitude": 49.18,
    "longitude": 20.06
  },
  {
    "name": "Gaciowa Cyrhla",
    "type": "polana",
    "latitude": 49.33,
    "longitude": 20.02
  },
  {
    "name": "Cyrla",
    "type": "góra, szczyt",
    "latitude": 49.29,
    "longitude": 20.1
  },
  {
    "name": "Cyrlica",
    "type": "polana",
    "latitude": 49.3,
    "longitude": 20.07
  },
  {
    "name": "Czernowa Góra",
    "type": "wzgórze, wzniesienie",
    "latitude": 49.29,
    "longitude": 20.1
  },
  {
    "name": "Czerwusówka",
    "type": "polana",
    "latitude": 49.3,
    "longitude": 20.05
  },
  {
    "name": "Czarna Góra",
    "type": "góra, szczyt",
    "latitude": 49.25,
    "longitude": 20.13
  },
  {
    "name": "Czarna Ławka",
    "type": "przełęcz",
    "latitude": 49.11,
    "longitude": 20.01
  },
  {
    "name": "Czarna Orawa",
    "type": "rzeka",
    "latitude": 49.27,
    "longitude": 19.38
  },
  {
    "name": "Czarna Pasza",
    "type": "zbocze, stok",
    "latitude": 49.14,
    "longitude": 20.0
  },
  {
    "name": "Czarna Skała",
    "type": "skała",
    "latitude": 49.12,
    "longitude": 20.01
  },
  {
    "name": "Czarna Turnia",
    "type": "góra, szczyt",
    "latitude": 49.15,
    "longitude": 19.55
  },
  {
    "name": "Czarna Woda",
    "type": "potok",
    "latitude": 49.28,
    "longitude": 19.46
  },
  {
    "name": "Jaskinia Czarna",
    "type": "jaskinia, grota",
    "latitude": 49.14,
    "longitude": 19.52
  },
  {
    "name": "Czarne Ściany",
    "type": "urwisko",
    "latitude": 49.13,
    "longitude": 20.01
  },
  {
    "name": "Czarne Turnie",
    "type": "skały",
    "latitude": 49.14,
    "longitude": 19.51
  },
  {
    "name": "Czarnichowski Wierch",
    "type": "góra, szczyt",
    "latitude": 49.22,
    "longitude": 20.03
  },
  {
    "name": "Czarnogórska Rzeka",
    "type": "potok",
    "latitude": 49.24,
    "longitude": 20.08
  },
  {
    "name": "Czarnostawiańska Przełęcz",
    "type": "przełęcz",
    "latitude": 49.1,
    "longitude": 20.04
  },
  {
    "name": "Czarnostawiańska Siklawa",
    "type": "wodospad",
    "latitude": 49.11,
    "longitude": 20.04
  },
  {
    "name": "Czarnotówka",
    "type": "góra, szczyt",
    "latitude": 49.3,
    "longitude": 20.03
  },
  {
    "name": "Czarny Potok",
    "type": "potok",
    "latitude": 49.28,
    "longitude": 19.56
  },
  {
    "name": "Czarny Brzeg",
    "type": "skarpa",
    "latitude": 49.23,
    "longitude": 19.48
  },
  {
    "name": "Czarny Dunajec",
    "type": "rzeka",
    "latitude": 49.29,
    "longitude": 20.02
  },
  {
    "name": "Czarny Piarg",
    "type": "piarg",
    "latitude": 49.12,
    "longitude": 20.01
  },
  {
    "name": "Czarny Staw Polski",
    "type": "jezioro",
    "latitude": 49.12,
    "longitude": 20.01
  },
  {
    "name": "Czarny Staw",
    "type": "jezioro",
    "latitude": 49.13,
    "longitude": 20.01
  },
  {
    "name": "Czarny Staw pod Rysami",
    "type": "jezioro",
    "latitude": 49.11,
    "longitude": 20.04
  },
  {
    "name": "Czarny Żleb",
    "type": "żleb",
    "latitude": 49.14,
    "longitude": 19.5
  },
  {
    "name": "Czepców Potok",
    "type": "potok",
    "latitude": 49.32,
    "longitude": 20.02
  },
  {
    "name": "Czerniawa",
    "type": "polana",
    "latitude": 49.3,
    "longitude": 20.17
  },
  {
    "name": "Czertezy",
    "type": "zbocze, stok",
    "latitude": 49.29,
    "longitude": 20.18
  },
  {
    "name": "Czertys",
    "type": "góra, szczyt",
    "latitude": 49.33,
    "longitude": 20.17
  },
  {
    "name": "Czerwienica",
    "type": "skała",
    "latitude": 49.15,
    "longitude": 19.59
  },
  {
    "name": "Czerwona Glina",
    "type": "zbocze, stok",
    "latitude": 49.15,
    "longitude": 19.59
  },
  {
    "name": "Czerwona Przełęcz",
    "type": "przełęcz",
    "latitude": 49.15,
    "longitude": 19.56
  },
  {
    "name": "Czerwona Skała",
    "type": "skała",
    "latitude": 49.25,
    "longitude": 20.1
  },
  {
    "name": "Czerwona Góra",
    "type": "wzgórze, wzniesienie",
    "latitude": 49.23,
    "longitude": 19.53
  },
  {
    "name": "Czerwone",
    "type": "łąka",
    "latitude": 49.25,
    "longitude": 20.02
  },
  {
    "name": "Czerwone Brzeżki",
    "type": "zbocze, stok",
    "latitude": 49.16,
    "longitude": 20.03
  },
  {
    "name": "Czerwone Stawki",
    "type": "jeziora",
    "latitude": 49.13,
    "longitude": 20.0
  },
  {
    "name": "Czerwone Wierchy",
    "type": "góry",
    "latitude": 49.14,
    "longitude": 19.55
  },
  {
    "name": "Czerwone Żlebki",
    "type": "żleb",
    "latitude": 49.13,
    "longitude": 19.54
  },
  {
    "name": "Czerwonka",
    "type": "potok",
    "latitude": 49.29,
    "longitude": 20.04
  },
  {
    "name": "Czerwonówka",
    "type": "polana",
    "latitude": 49.3,
    "longitude": 20.04
  },
  {
    "name": "Czerwony Gronik",
    "type": "skały",
    "latitude": 49.15,
    "longitude": 19.52
  },
  {
    "name": "Czerwony Grzbiet",
    "type": "grań",
    "latitude": 49.14,
    "longitude": 19.55
  },
  {
    "name": "Czerwony Piarg",
    "type": "piarg",
    "latitude": 49.11,
    "longitude": 20.02
  },
  {
    "name": "Czerwony",
    "type": "potok",
    "latitude": 49.28,
    "longitude": 19.58
  },
  {
    "name": "Czerwony Potok",
    "type": "potok",
    "latitude": 49.27,
    "longitude": 20.05
  },
  {
    "name": "Czerwienny",
    "type": "potok",
    "latitude": 49.24,
    "longitude": 19.53
  },
  {
    "name": "Czerwony Potoczek",
    "type": "potok",
    "latitude": 49.23,
    "longitude": 20.14
  },
  {
    "name": "Czerwony Staw",
    "type": "jezioro",
    "latitude": 49.14,
    "longitude": 20.02
  },
  {
    "name": "Czerwony Upłaz",
    "type": "zbocze, stok",
    "latitude": 49.14,
    "longitude": 19.55
  },
  {
    "name": "Czerwony Wierch",
    "type": "góra, szczyt",
    "latitude": 49.12,
    "longitude": 19.46
  },
  {
    "name": "Czerwony Żleb",
    "type": "żleb",
    "latitude": 49.13,
    "longitude": 19.53
  },
  {
    "name": "Czoło",
    "type": "polana",
    "latitude": 49.15,
    "longitude": 19.57
  },
  {
    "name": "Czoło Turbacza",
    "type": "góra, szczyt",
    "latitude": 49.33,
    "longitude": 20.06
  },
  {
    "name": "Jezioro Czorsztyńskie",
    "type": "sztuczny zbiornik wodny",
    "latitude": 49.26,
    "longitude": 20.16
  },
  {
    "name": "Czółka",
    "type": "zbocze, stok",
    "latitude": 49.15,
    "longitude": 20.0
  },
  {
    "name": "Czuba",
    "type": "góra, szczyt",
    "latitude": 49.3,
    "longitude": 20.05
  },
  {
    "name": "Czubata",
    "type": "góra, szczyt",
    "latitude": 49.25,
    "longitude": 20.19
  },
  {
    "name": "Czubernata",
    "type": "polana",
    "latitude": 49.31,
    "longitude": 20.03
  },
  {
    "name": "Czubik",
    "type": "góra, szczyt",
    "latitude": 49.12,
    "longitude": 19.48
  },
  {
    "name": "Dalsza Młaka",
    "type": "potok",
    "latitude": 49.27,
    "longitude": 19.38
  },
  {
    "name": "Dermowa",
    "type": "polana",
    "latitude": 49.32,
    "longitude": 20.02
  },
  {
    "name": "Diabełek",
    "type": "przełęcz",
    "latitude": 49.15,
    "longitude": 20.0
  },
  {
    "name": "Diabliniec",
    "type": "wzgórze, wzniesienie",
    "latitude": 49.15,
    "longitude": 19.5
  },
  {
    "name": "Długa Góra",
    "type": "wzgórze, wzniesienie",
    "latitude": 49.25,
    "longitude": 20.02
  },
  {
    "name": "Długa Polana",
    "type": "hala",
    "latitude": 49.3,
    "longitude": 20.04
  },
  {
    "name": "Długa Dolina",
    "type": "dolina",
    "latitude": 49.15,
    "longitude": 19.48
  },
  {
    "name": "Hala Długa",
    "type": "hala",
    "latitude": 49.32,
    "longitude": 20.07
  },
  {
    "name": "Przełęcz Długa",
    "type": "przełęcz",
    "latitude": 49.32,
    "longitude": 20.07
  },
  {
    "name": "Długi Giewont",
    "type": "grań",
    "latitude": 49.15,
    "longitude": 19.56
  },
  {
    "name": "Długi Piarg",
    "type": "piarg",
    "latitude": 49.1,
    "longitude": 20.04
  },
  {
    "name": "Długi Staw",
    "type": "jezioro",
    "latitude": 49.13,
    "longitude": 20.0
  },
  {
    "name": "Długi Upłaz",
    "type": "grań",
    "latitude": 49.13,
    "longitude": 19.45
  },
  {
    "name": "Długi Żleb",
    "type": "żleb",
    "latitude": 49.15,
    "longitude": 19.59
  },
  {
    "name": "Długie Młaki",
    "type": "polana",
    "latitude": 49.32,
    "longitude": 20.06
  },
  {
    "name": "Długie Pole",
    "type": "góra, szczyt",
    "latitude": 49.23,
    "longitude": 20.12
  },
  {
    "name": "Do Cupryny",
    "type": "łąka",
    "latitude": 49.3,
    "longitude": 19.54
  },
  {
    "name": "Do Czarnej",
    "type": "polana",
    "latitude": 49.33,
    "longitude": 19.19
  },
  {
    "name": "Do Wierchu",
    "type": "łąka",
    "latitude": 49.23,
    "longitude": 20.05
  },
  {
    "name": "Dolina",
    "type": "dolina",
    "latitude": 49.31,
    "longitude": 19.57
  },
  {
    "name": "Dolina za Mnichem",
    "type": "dolina",
    "latitude": 49.11,
    "longitude": 20.02
  },
  {
    "name": "Dolinczańska Wolarnia",
    "type": "zbocze, stok",
    "latitude": 49.12,
    "longitude": 19.52
  },
  {
    "name": "Dolinczański Grzbiet",
    "type": "grań",
    "latitude": 49.12,
    "longitude": 19.51
  },
  {
    "name": "Dolinczański Potok",
    "type": "potok",
    "latitude": 49.13,
    "longitude": 19.51
  },
  {
    "name": "Dolinczański Upłaz",
    "type": "zbocze, stok",
    "latitude": 49.12,
    "longitude": 19.52
  },
  {
    "name": "Dolinczański Żleb",
    "type": "żleb",
    "latitude": 49.13,
    "longitude": 19.46
  },
  {
    "name": "Dolinka",
    "type": "dolina",
    "latitude": 49.12,
    "longitude": 19.52
  },
  {
    "name": "Pusta Dolinka",
    "type": "dolina",
    "latitude": 49.13,
    "longitude": 20.01
  },
  {
    "name": "Dolinka pod Kołem",
    "type": "cyrk lodowcowy",
    "latitude": 49.12,
    "longitude": 20.0
  },
  {
    "name": "Dolna Wyrobniówka",
    "type": "polana",
    "latitude": 49.27,
    "longitude": 19.12
  },
  {
    "name": "Dolny Łęg",
    "type": "łąka",
    "latitude": 49.28,
    "longitude": 20.11
  },
  {
    "name": "Domagalski",
    "type": "potok",
    "latitude": 49.21,
    "longitude": 19.49
  },
  {
    "name": "Domański Wierch",
    "type": "góra, szczyt",
    "latitude": 49.24,
    "longitude": 19.52
  },
  {
    "name": "Dopustny Potok",
    "type": "potok",
    "latitude": 49.24,
    "longitude": 20.17
  },
  {
    "name": "Dorulów",
    "type": "potok",
    "latitude": 49.2,
    "longitude": 20.0
  },
  {
    "name": "Dowanie",
    "type": "łąka",
    "latitude": 49.28,
    "longitude": 20.08
  },
  {
    "name": "Grapa Chorobowska",
    "type": "góra, szczyt",
    "latitude": 49.3,
    "longitude": 20.08
  },
  {
    "name": "Drobniowy Wierch",
    "type": "góra, szczyt",
    "latitude": 49.31,
    "longitude": 19.44
  },
  {
    "name": "Drugi Potok",
    "type": "potok",
    "latitude": 49.26,
    "longitude": 20.12
  },
  {
    "name": "Dubrawiska",
    "type": "zbocze, stok",
    "latitude": 49.14,
    "longitude": 20.01
  },
  {
    "name": "Dudasowski Wierch",
    "type": "góra, szczyt",
    "latitude": 49.21,
    "longitude": 20.12
  },
  {
    "name": "Dudasówka",
    "type": "łąka",
    "latitude": 49.21,
    "longitude": 20.11
  },
  {
    "name": "Dudniąca Ziem",
    "type": "uroczysko",
    "latitude": 49.13,
    "longitude": 20.04
  },
  {
    "name": "Dudnica",
    "type": "jaskinia, grota",
    "latitude": 49.15,
    "longitude": 19.58
  },
  {
    "name": "Dudowa Góra",
    "type": "góra, szczyt",
    "latitude": 49.28,
    "longitude": 20.18
  },
  {
    "name": "Dudowa Kotlina",
    "type": "kotlina",
    "latitude": 49.12,
    "longitude": 19.48
  },
  {
    "name": "Dolina Dudowa",
    "type": "dolina",
    "latitude": 49.15,
    "longitude": 19.49
  },
  {
    "name": "Dudowe Spady",
    "type": "urwisko",
    "latitude": 49.14,
    "longitude": 19.49
  },
  {
    "name": "Dudowe Stawki",
    "type": "jeziora",
    "latitude": 49.12,
    "longitude": 19.48
  },
  {
    "name": "Dudowa Studnia",
    "type": "jaskinia, grota",
    "latitude": 49.14,
    "longitude": 19.49
  },
  {
    "name": "Dudowe Turnie",
    "type": "skały",
    "latitude": 49.12,
    "longitude": 19.48
  },
  {
    "name": "Dudowiec",
    "type": "potok",
    "latitude": 49.28,
    "longitude": 19.51
  },
  {
    "name": "Dudowski Potok",
    "type": "potok",
    "latitude": 49.18,
    "longitude": 20.04
  },
  {
    "name": "Dudówka",
    "type": "polana",
    "latitude": 49.13,
    "longitude": 19.48
  },
  {
    "name": "Dunajec",
    "type": "rzeka",
    "latitude": 49.29,
    "longitude": 20.02
  },
  {
    "name": "Dunajeckie Łąki",
    "type": "łąki",
    "latitude": 49.26,
    "longitude": 19.52
  },
  {
    "name": "Spyrkowski Groń",
    "type": "góra, szczyt",
    "latitude": 49.32,
    "longitude": 19.38
  },
  {
    "name": "Dursztyński Potok",
    "type": "potok",
    "latitude": 49.26,
    "longitude": 20.12
  },
  {
    "name": "Dwoista Siklawa",
    "type": "wodospad",
    "latitude": 49.11,
    "longitude": 20.03
  },
  {
    "name": "Dwoisty Staw",
    "type": "jezioro",
    "latitude": 49.13,
    "longitude": 20.0
  },
  {
    "name": "Dwoisty Żleb",
    "type": "żleb",
    "latitude": 49.12,
    "longitude": 20.04
  },
  {
    "name": "Dwoiśniak",
    "type": "jezioro",
    "latitude": 49.14,
    "longitude": 19.59
  },
  {
    "name": "Dwojaki",
    "type": "żleb",
    "latitude": 49.13,
    "longitude": 19.48
  },
  {
    "name": "Dwojakowy Żleb",
    "type": "żleb",
    "latitude": 49.13,
    "longitude": 19.48
  },
  {
    "name": "Dwór",
    "type": "łąka",
    "latitude": 49.21,
    "longitude": 19.56
  },
  {
    "name": "Dymiąca Woda",
    "type": "potok",
    "latitude": 49.11,
    "longitude": 20.04
  },
  {
    "name": "Dziawragowa Studzienka",
    "type": "źródło",
    "latitude": 49.31,
    "longitude": 19.36
  },
  {
    "name": "Dziad",
    "type": "skała",
    "latitude": 49.14,
    "longitude": 19.49
  },
  {
    "name": "Dziadowa Jama",
    "type": "wąwóz",
    "latitude": 49.14,
    "longitude": 20.05
  },
  {
    "name": "Dziadowa Skała",
    "type": "skała",
    "latitude": 49.14,
    "longitude": 20.05
  },
  {
    "name": "Dziadowiec",
    "type": "zbocze, stok",
    "latitude": 49.15,
    "longitude": 19.56
  },
  {
    "name": "Dziadowska Dolina",
    "type": "dolina",
    "latitude": 49.29,
    "longitude": 19.43
  },
  {
    "name": "Dziadula",
    "type": "skała",
    "latitude": 49.13,
    "longitude": 20.03
  },
  {
    "name": "Dziadusiów Potok",
    "type": "potok",
    "latitude": 49.17,
    "longitude": 19.55
  },
  {
    "name": "Dział",
    "type": "łąka",
    "latitude": 49.29,
    "longitude": 20.01
  },
  {
    "name": "Działek",
    "type": "góra, szczyt",
    "latitude": 49.3,
    "longitude": 19.59
  },
  {
    "name": "Dzianiski Potok",
    "type": "potok",
    "latitude": 49.2,
    "longitude": 19.49
  },
  {
    "name": "Dziedzicówka",
    "type": "hala",
    "latitude": 49.18,
    "longitude": 19.51
  },
  {
    "name": "Dzielański Wierch",
    "type": "góra, szczyt",
    "latitude": 49.29,
    "longitude": 19.53
  },
  {
    "name": "Dzieliki",
    "type": "wzgórza, wzniesienia",
    "latitude": 49.32,
    "longitude": 20.18
  },
  {
    "name": "Dziubasówki",
    "type": "polana",
    "latitude": 49.3,
    "longitude": 20.04
  },
  {
    "name": "Dziura",
    "type": "jaskinia, grota",
    "latitude": 49.16,
    "longitude": 19.56
  },
  {
    "name": "Dziura Małołącka Mała",
    "type": "jaskinia, grota",
    "latitude": 49.14,
    "longitude": 19.55
  },
  {
    "name": "Dziura nad Doliną Strążyską",
    "type": "jaskinia, grota",
    "latitude": 49.15,
    "longitude": 19.56
  },
  {
    "name": "Dziura nad Korytem",
    "type": "jaskinia, grota",
    "latitude": 49.14,
    "longitude": 19.54
  },
  {
    "name": "Dziura nad Potokiem",
    "type": "jaskinia, grota",
    "latitude": 49.15,
    "longitude": 19.48
  },
  {
    "name": "Dziura nad Studnią",
    "type": "jaskinia, grota",
    "latitude": 49.14,
    "longitude": 19.53
  },
  {
    "name": "Dziura pod Nosalem",
    "type": "jaskinia, grota",
    "latitude": 49.16,
    "longitude": 19.58
  },
  {
    "name": "Dziura w Kończystej Turni",
    "type": "jaskinia, grota",
    "latitude": 49.15,
    "longitude": 19.52
  },
  {
    "name": "Dziura w Litworowej",
    "type": "jaskinia, grota",
    "latitude": 49.14,
    "longitude": 19.54
  },
  {
    "name": "Dziura w Ścianie",
    "type": "jaskinia, grota",
    "latitude": 49.14,
    "longitude": 19.51
  },
  {
    "name": "Dziura w Wantach",
    "type": "jaskinia, grota",
    "latitude": 49.14,
    "longitude": 19.55
  },
  {
    "name": "Dziura w Zawiesistej",
    "type": "jaskinia, grota",
    "latitude": 49.14,
    "longitude": 19.48
  },
  {
    "name": "Dziura za Głazami",
    "type": "jaskinia, grota",
    "latitude": 49.15,
    "longitude": 19.57
  },
  {
    "name": "Dziurawa Przełęcz",
    "type": "przełęcz",
    "latitude": 49.12,
    "longitude": 19.46
  },
  {
    "name": "Dziurowa Skała",
    "type": "góra, szczyt",
    "latitude": 49.25,
    "longitude": 20.11
  },
  {
    "name": "Dziurawe",
    "type": "zbocze, stok",
    "latitude": 49.14,
    "longitude": 19.53
  },
  {
    "name": "Dziurawiec",
    "type": "jaskinia, grota",
    "latitude": 49.15,
    "longitude": 19.51
  },
  {
    "name": "Dziurawy Kopiniec",
    "type": "góra, szczyt",
    "latitude": 49.11,
    "longitude": 20.02
  },
  {
    "name": "Dzwonnica",
    "type": "jaskinia, grota",
    "latitude": 49.14,
    "longitude": 19.51
  },
  {
    "name": "Fabisiówka",
    "type": "polana",
    "latitude": 49.33,
    "longitude": 19.16
  },
  {
    "name": "Faltynowe Kąty",
    "type": "góra, szczyt",
    "latitude": 49.23,
    "longitude": 20.18
  },
  {
    "name": "Falsztyńskie Skałki",
    "type": "skały",
    "latitude": 49.25,
    "longitude": 20.16
  },
  {
    "name": "Fenikowa",
    "type": "polana",
    "latitude": 49.32,
    "longitude": 20.04
  },
  {
    "name": "Jaskinia Filipczańska Niżnia",
    "type": "jaskinia, grota",
    "latitude": 49.16,
    "longitude": 20.04
  },
  {
    "name": "Filipczańska Polana",
    "type": "polana",
    "latitude": 49.16,
    "longitude": 20.04
  },
  {
    "name": "Grota Filipczańska Wyżnia",
    "type": "jaskinia, grota",
    "latitude": 49.16,
    "longitude": 20.04
  },
  {
    "name": "Filipka",
    "type": "potok",
    "latitude": 49.18,
    "longitude": 20.03
  },
  {
    "name": "Filipczański Wierch",
    "type": "góra, szczyt",
    "latitude": 49.16,
    "longitude": 20.04
  },
  {
    "name": "Fiłasowa",
    "type": "polana",
    "latitude": 49.33,
    "longitude": 20.03
  },
  {
    "name": "Fiedorówka",
    "type": "polana",
    "latitude": 49.31,
    "longitude": 20.09
  },
  {
    "name": "Florków",
    "type": "potok",
    "latitude": 49.19,
    "longitude": 19.55
  },
  {
    "name": "Florynów",
    "type": "potok",
    "latitude": 49.22,
    "longitude": 20.0
  },
  {
    "name": "Foldówka",
    "type": "łąka",
    "latitude": 49.22,
    "longitude": 20.1
  },
  {
    "name": "Foluszowy Potok",
    "type": "potok",
    "latitude": 49.17,
    "longitude": 19.56
  },
  {
    "name": "Fonkietka",
    "type": "polana",
    "latitude": 49.29,
    "longitude": 20.16
  },
  {
    "name": "Formoza",
    "type": "polana",
    "latitude": 49.33,
    "longitude": 19.46
  },
  {
    "name": "Frankowa Góra",
    "type": "góra, szczyt",
    "latitude": 49.2,
    "longitude": 20.18
  },
  {
    "name": "Marcelów",
    "type": "potok",
    "latitude": 49.21,
    "longitude": 19.53
  },
  {
    "name": "Forędówki",
    "type": "potok",
    "latitude": 49.3,
    "longitude": 20.12
  },
  {
    "name": "Furcówka",
    "type": "potok",
    "latitude": 49.3,
    "longitude": 20.12
  },
  {
    "name": "Furczański Potok",
    "type": "potok",
    "latitude": 49.25,
    "longitude": 20.01
  },
  {
    "name": "Furkaska",
    "type": "góra, szczyt",
    "latitude": 49.15,
    "longitude": 19.47
  },
  {
    "name": "Furmanów Wierch",
    "type": "góra, szczyt",
    "latitude": 49.19,
    "longitude": 19.57
  },
  {
    "name": "Furtakówka",
    "type": "polana",
    "latitude": 49.19,
    "longitude": 20.03
  },
  {
    "name": "Gaciska",
    "type": "łąka",
    "latitude": 49.32,
    "longitude": 19.12
  },
  {
    "name": "Gackowe Potoczki",
    "type": "łąki",
    "latitude": 49.18,
    "longitude": 20.02
  },
  {
    "name": "Wąwóz Gacków",
    "type": "wąwóz",
    "latitude": 49.3,
    "longitude": 19.59
  },
  {
    "name": "Gackówka",
    "type": "polana",
    "latitude": 49.33,
    "longitude": 19.2
  },
  {
    "name": "Gaisty Żleb",
    "type": "żleb",
    "latitude": 49.13,
    "longitude": 20.04
  },
  {
    "name": "Gajka",
    "type": "góra, szczyt",
    "latitude": 49.3,
    "longitude": 19.32
  },
  {
    "name": "Gajniak",
    "type": "potok",
    "latitude": 49.22,
    "longitude": 20.13
  },
  {
    "name": "Gajnopus",
    "type": "łąki",
    "latitude": 49.29,
    "longitude": 20.05
  },
  {
    "name": "Galicowa",
    "type": "góra, szczyt",
    "latitude": 49.2,
    "longitude": 20.01
  },
  {
    "name": "Ganderowe",
    "type": "góra, szczyt",
    "latitude": 49.22,
    "longitude": 19.59
  },
  {
    "name": "Garczkowski",
    "type": "potok",
    "latitude": 49.2,
    "longitude": 19.49
  },
  {
    "name": "Gawlaków Wierch",
    "type": "góra, szczyt",
    "latitude": 49.18,
    "longitude": 20.0
  },
  {
    "name": "Gawlasia",
    "type": "polana",
    "latitude": 49.33,
    "longitude": 19.21
  },
  {
    "name": "Gawlasikówki",
    "type": "polana",
    "latitude": 49.33,
    "longitude": 19.17
  },
  {
    "name": "Gawłowskie",
    "type": "hala",
    "latitude": 49.31,
    "longitude": 19.11
  },
  {
    "name": "Z Gawłowskiego",
    "type": "potok",
    "latitude": 49.29,
    "longitude": 19.11
  },
  {
    "name": "Gawory",
    "type": "góra, szczyt",
    "latitude": 49.33,
    "longitude": 19.18
  },
  {
    "name": "Gawra",
    "type": "jaskinia, grota",
    "latitude": 49.14,
    "longitude": 19.52
  },
  {
    "name": "Gawronowa",
    "type": "polana",
    "latitude": 49.31,
    "longitude": 20.04
  },
  {
    "name": "Gawronowa Rola",
    "type": "łąki",
    "latitude": 49.24,
    "longitude": 19.59
  },
  {
    "name": "Gawroński",
    "type": "potok",
    "latitude": 49.19,
    "longitude": 19.49
  },
  {
    "name": "Gawronówka",
    "type": "góra, szczyt",
    "latitude": 49.2,
    "longitude": 19.56
  },
  {
    "name": "Potok Gawryłowski",
    "type": "potok",
    "latitude": 49.32,
    "longitude": 19.39
  },
  {
    "name": "Gazdy",
    "type": "potok",
    "latitude": 49.3,
    "longitude": 20.03
  },
  {
    "name": "Gąsienicowa Przełączka",
    "type": "przełęcz",
    "latitude": 49.13,
    "longitude": 20.0
  },
  {
    "name": "Gąsienicowa Turnia",
    "type": "góra, szczyt",
    "latitude": 49.13,
    "longitude": 20.0
  },
  {
    "name": "Dolina Gąsienicowa",
    "type": "dolina",
    "latitude": 49.14,
    "longitude": 20.0
  },
  {
    "name": "Hala Gąsienicowa",
    "type": "hala",
    "latitude": 49.14,
    "longitude": 20.0
  },
  {
    "name": "Gąsienicowe Stawy",
    "type": "jezioro",
    "latitude": 49.13,
    "longitude": 20.0
  },
  {
    "name": "Gąsieniców Potok",
    "type": "polana",
    "latitude": 49.16,
    "longitude": 19.54
  },
  {
    "name": "Gąsienicowy Wierch",
    "type": "góra, szczyt",
    "latitude": 49.17,
    "longitude": 19.56
  },
  {
    "name": "Gąsiorówka",
    "type": "potok",
    "latitude": 49.29,
    "longitude": 19.57
  },
  {
    "name": "Gąszczyk",
    "type": "łąka",
    "latitude": 49.23,
    "longitude": 20.07
  },
  {
    "name": "Jaskinia Geologiczna",
    "type": "jaskinia, grota",
    "latitude": 49.14,
    "longitude": 19.52
  },
  {
    "name": "Gęsia Szyja",
    "type": "góra, szczyt",
    "latitude": 49.15,
    "longitude": 20.04
  },
  {
    "name": "Giecka",
    "type": "polana",
    "latitude": 49.33,
    "longitude": 20.05
  },
  {
    "name": "Gielatowski",
    "type": "potok",
    "latitude": 49.21,
    "longitude": 20.1
  },
  {
    "name": "Giewont",
    "type": "góra, szczyt",
    "latitude": 49.15,
    "longitude": 19.56
  },
  {
    "name": "Gilowskie Potoki",
    "type": "łąka",
    "latitude": 49.23,
    "longitude": 20.02
  },
  {
    "name": "Glinka",
    "type": "potok",
    "latitude": 49.26,
    "longitude": 19.13
  },
  {
    "name": "Glinna",
    "type": "potok",
    "latitude": 49.32,
    "longitude": 19.19
  },
  {
    "name": "Glinne",
    "type": "przełęcz",
    "latitude": 49.32,
    "longitude": 19.22
  },
  {
    "name": "Glistówka",
    "type": "góra, szczyt",
    "latitude": 49.24,
    "longitude": 20.15
  },
  {
    "name": "Gluzówka",
    "type": "polana",
    "latitude": 49.33,
    "longitude": 19.11
  },
  {
    "name": "Gładczański Potok",
    "type": "potok",
    "latitude": 49.17,
    "longitude": 19.56
  },
  {
    "name": "Gładka Kotelnica",
    "type": "góra, szczyt",
    "latitude": 49.12,
    "longitude": 20.01
  },
  {
    "name": "Gładka Ławka",
    "type": "przełęcz",
    "latitude": 49.12,
    "longitude": 20.01
  },
  {
    "name": "Gładka Przełęcz",
    "type": "przełęcz",
    "latitude": 49.12,
    "longitude": 20.0
  },
  {
    "name": "Gładka Ubocz",
    "type": "zbocze, stok",
    "latitude": 49.12,
    "longitude": 19.48
  },
  {
    "name": "Gładki Upłaz",
    "type": "zbocze, stok",
    "latitude": 49.13,
    "longitude": 19.46
  },
  {
    "name": "Gładki Wierch",
    "type": "góra, szczyt",
    "latitude": 49.12,
    "longitude": 20.0
  },
  {
    "name": "Gładki Żleb",
    "type": "żleb",
    "latitude": 49.14,
    "longitude": 19.51
  },
  {
    "name": "Gładkie",
    "type": "zbocze, stok",
    "latitude": 49.15,
    "longitude": 20.03
  },
  {
    "name": "Gładkie Kopki",
    "type": "góra, szczyt",
    "latitude": 49.12,
    "longitude": 20.01
  },
  {
    "name": "Gładkie Stawiańskie",
    "type": "zbocze, stok",
    "latitude": 49.14,
    "longitude": 19.59
  },
  {
    "name": "Gładkie Upłaziańskie",
    "type": "zbocze, stok",
    "latitude": 49.14,
    "longitude": 19.53
  },
  {
    "name": "Głazisty Żleb",
    "type": "żleb",
    "latitude": 49.14,
    "longitude": 19.55
  },
  {
    "name": "Głazów Żleb",
    "type": "żleb",
    "latitude": 49.14,
    "longitude": 20.02
  },
  {
    "name": "Głaźna Czuba",
    "type": "góra, szczyt",
    "latitude": 49.11,
    "longitude": 20.02
  },
  {
    "name": "Głaźne Wrótka",
    "type": "przełęcz",
    "latitude": 49.11,
    "longitude": 20.02
  },
  {
    "name": "Głęboka Dolina",
    "type": "dolina",
    "latitude": 49.29,
    "longitude": 20.16
  },
  {
    "name": "Głęboki",
    "type": "potok",
    "latitude": 49.26,
    "longitude": 20.14
  },
  {
    "name": "Głęboki Potok",
    "type": "potok",
    "latitude": 49.23,
    "longitude": 20.08
  },
  {
    "name": "Głębokie",
    "type": "potok",
    "latitude": 49.24,
    "longitude": 20.19
  },
  {
    "name": "Głęboki Żleb",
    "type": "żleb",
    "latitude": 49.14,
    "longitude": 20.05
  },
  {
    "name": "Z Głębokiego",
    "type": "potok",
    "latitude": 49.28,
    "longitude": 19.11
  },
  {
    "name": "Głęboń",
    "type": "łąka",
    "latitude": 49.22,
    "longitude": 20.11
  },
  {
    "name": "Głębowiec",
    "type": "dolina",
    "latitude": 49.15,
    "longitude": 19.48
  },
  {
    "name": "Głochówka",
    "type": "polana",
    "latitude": 49.27,
    "longitude": 19.11
  },
  {
    "name": "Potok Głodowski",
    "type": "potok",
    "latitude": 49.28,
    "longitude": 19.45
  },
  {
    "name": "Głowaczów Wierch",
    "type": "wzgórze, wzniesienie",
    "latitude": 49.3,
    "longitude": 19.51
  },
  {
    "name": "Głuchówka",
    "type": "polana",
    "latitude": 49.33,
    "longitude": 19.2
  },
  {
    "name": "Cederman",
    "type": "góra, szczyt",
    "latitude": 49.29,
    "longitude": 20.07
  },
  {
    "name": "Gogolowa Grapa",
    "type": "urwisko",
    "latitude": 49.22,
    "longitude": 20.07
  },
  {
    "name": "Gojnica",
    "type": "łąka",
    "latitude": 49.26,
    "longitude": 20.0
  },
  {
    "name": "Golcówka",
    "type": "łąka",
    "latitude": 49.33,
    "longitude": 19.11
  },
  {
    "name": "Golów",
    "type": "potok",
    "latitude": 49.19,
    "longitude": 19.53
  },
  {
    "name": "Goła Góra",
    "type": "góra, szczyt",
    "latitude": 49.28,
    "longitude": 20.15
  },
  {
    "name": "Goła Skałka",
    "type": "skała",
    "latitude": 49.25,
    "longitude": 20.11
  },
  {
    "name": "Goły Wierch",
    "type": "góra, szczyt",
    "latitude": 49.16,
    "longitude": 20.05
  },
  {
    "name": "Gorc",
    "type": "góra, szczyt",
    "latitude": 49.33,
    "longitude": 20.15
  },
  {
    "name": "Gorce",
    "type": "łąka",
    "latitude": 49.21,
    "longitude": 19.49
  },
  {
    "name": "Gorcowski",
    "type": "potok",
    "latitude": 49.31,
    "longitude": 20.18
  },
  {
    "name": "Goryczkowa Czuba",
    "type": "góra, szczyt",
    "latitude": 49.13,
    "longitude": 19.57
  },
  {
    "name": "Nad Zakosy",
    "type": "przełęcz",
    "latitude": 49.13,
    "longitude": 19.58
  },
  {
    "name": "Goryczkowa Przełęcz Świńska",
    "type": "przełęcz",
    "latitude": 49.13,
    "longitude": 19.57
  },
  {
    "name": "Dolina Goryczkowa",
    "type": "dolina",
    "latitude": 49.14,
    "longitude": 19.58
  },
  {
    "name": "Hala Goryczkowa",
    "type": "hala",
    "latitude": 49.14,
    "longitude": 19.58
  },
  {
    "name": "Jaskinia Goryczkowa",
    "type": "jaskinia, grota",
    "latitude": 49.15,
    "longitude": 19.58
  },
  {
    "name": "Goryczkowe Wywierzysko",
    "type": "źródło",
    "latitude": 49.15,
    "longitude": 19.58
  },
  {
    "name": "Goryczkowy Potok",
    "type": "potok",
    "latitude": 49.15,
    "longitude": 19.58
  },
  {
    "name": "Gorzec",
    "type": "polana",
    "latitude": 49.32,
    "longitude": 20.04
  },
  {
    "name": "Gólakówka",
    "type": "góra, szczyt",
    "latitude": 49.3,
    "longitude": 19.5
  },
  {
    "name": "Góra",
    "type": "wzgórze, wzniesienie",
    "latitude": 49.28,
    "longitude": 19.57
  },
  {
    "name": "Górka",
    "type": "wzgórze, wzniesienie",
    "latitude": 49.17,
    "longitude": 19.56
  },
  {
    "name": "Górków Wierch",
    "type": "wzgórze, wzniesienie",
    "latitude": 49.18,
    "longitude": 20.1
  },
  {
    "name": "Górna Wyrobniówka",
    "type": "polana",
    "latitude": 49.27,
    "longitude": 19.12
  },
  {
    "name": "Górowa",
    "type": "hala",
    "latitude": 49.32,
    "longitude": 19.18
  },
  {
    "name": "Górski Potok",
    "type": "potok",
    "latitude": 49.29,
    "longitude": 20.04
  },
  {
    "name": "Grabi Wierch",
    "type": "góra, szczyt",
    "latitude": 49.29,
    "longitude": 19.54
  },
  {
    "name": "Grajcarowa",
    "type": "polana",
    "latitude": 49.31,
    "longitude": 20.06
  },
  {
    "name": "Granacka Przełęcz",
    "type": "przełęcz",
    "latitude": 49.13,
    "longitude": 20.02
  },
  {
    "name": "Granatówka",
    "type": "góra, szczyt",
    "latitude": 49.22,
    "longitude": 19.57
  },
  {
    "name": "Granaty",
    "type": "masyw",
    "latitude": 49.13,
    "longitude": 20.01
  },
  {
    "name": "Grandeus",
    "type": "góra, szczyt",
    "latitude": 49.24,
    "longitude": 20.11
  },
  {
    "name": "Granica",
    "type": "hala",
    "latitude": 49.31,
    "longitude": 19.14
  },
  {
    "name": "Graniczek",
    "type": "góra, szczyt",
    "latitude": 49.28,
    "longitude": 19.36
  },
  {
    "name": "Graniczniak",
    "type": "żleb",
    "latitude": 49.13,
    "longitude": 19.49
  },
  {
    "name": "Granicznik",
    "type": "potok",
    "latitude": 49.28,
    "longitude": 20.12
  },
  {
    "name": "Grapa",
    "type": "łąka",
    "latitude": 49.25,
    "longitude": 19.55
  },
  {
    "name": "Grapa Zagórzańska",
    "type": "wzgórze, wzniesienie",
    "latitude": 49.3,
    "longitude": 19.48
  },
  {
    "name": "Grapny Dział",
    "type": "góra, szczyt",
    "latitude": 49.31,
    "longitude": 19.55
  },
  {
    "name": "Grapowski Potok",
    "type": "potok",
    "latitude": 49.33,
    "longitude": 19.44
  },
  {
    "name": "Grapy",
    "type": "góra, szczyt",
    "latitude": 49.29,
    "longitude": 20.18
  },
  {
    "name": "Greków Potok",
    "type": "potok",
    "latitude": 49.19,
    "longitude": 19.49
  },
  {
    "name": "Greniów Potok",
    "type": "potok",
    "latitude": 49.24,
    "longitude": 20.03
  },
  {
    "name": "Gręcinowy",
    "type": "potok",
    "latitude": 49.26,
    "longitude": 20.1
  },
  {
    "name": "Grobla",
    "type": "łąka",
    "latitude": 49.28,
    "longitude": 20.08
  },
  {
    "name": "Groblowy Potok",
    "type": "potok",
    "latitude": 49.24,
    "longitude": 19.47
  },
  {
    "name": "Gruby",
    "type": "łąka",
    "latitude": 49.28,
    "longitude": 20.08
  },
  {
    "name": "Groby",
    "type": "jaskinia, grota",
    "latitude": 49.14,
    "longitude": 19.51
  },
  {
    "name": "Grocholów Potok",
    "type": "potok",
    "latitude": 49.2,
    "longitude": 20.09
  },
  {
    "name": "Groniczek",
    "type": "zbocze, stok",
    "latitude": 49.18,
    "longitude": 20.09
  },
  {
    "name": "Gronik",
    "type": "góra, szczyt",
    "latitude": 49.25,
    "longitude": 19.55
  },
  {
    "name": "Groniki",
    "type": "góra, szczyt",
    "latitude": 49.33,
    "longitude": 20.02
  },
  {
    "name": "Groników Stawki",
    "type": "jezioro",
    "latitude": 49.18,
    "longitude": 19.53
  },
  {
    "name": "Groniowski",
    "type": "potok",
    "latitude": 49.31,
    "longitude": 20.16
  },
  {
    "name": "Groniowski Potok",
    "type": "potok",
    "latitude": 49.3,
    "longitude": 20.17
  },
  {
    "name": "Gronkowska",
    "type": "polana",
    "latitude": 49.31,
    "longitude": 20.06
  },
  {
    "name": "Groń",
    "type": "łąka",
    "latitude": 49.24,
    "longitude": 20.0
  },
  {
    "name": "Orawczański Groń",
    "type": "góra, szczyt",
    "latitude": 49.31,
    "longitude": 19.41
  },
  {
    "name": "Grapa Witowa",
    "type": "zbocze, stok",
    "latitude": 49.2,
    "longitude": 19.48
  },
  {
    "name": "Kikula",
    "type": "góra, szczyt",
    "latitude": 49.29,
    "longitude": 19.13
  },
  {
    "name": "Gruba Turnia",
    "type": "skała",
    "latitude": 49.15,
    "longitude": 19.59
  },
  {
    "name": "Gruba",
    "type": "góra, szczyt",
    "latitude": 49.23,
    "longitude": 20.14
  },
  {
    "name": "Grónik",
    "type": "potok",
    "latitude": 49.28,
    "longitude": 19.45
  },
  {
    "name": "Grunik Jędrusiowski",
    "type": "góra, szczyt",
    "latitude": 49.31,
    "longitude": 19.33
  },
  {
    "name": "Grunik",
    "type": "góra, szczyt",
    "latitude": 49.31,
    "longitude": 19.34
  },
  {
    "name": "Gruszków Wierch",
    "type": "góra, szczyt",
    "latitude": 49.19,
    "longitude": 19.54
  },
  {
    "name": "Grządki",
    "type": "skały",
    "latitude": 49.12,
    "longitude": 19.46
  },
  {
    "name": "Grzebieniówka",
    "type": "skała",
    "latitude": 49.26,
    "longitude": 20.06
  },
  {
    "name": "Grzesie",
    "type": "zbocze, stok",
    "latitude": 49.14,
    "longitude": 19.52
  },
  {
    "name": "Potok Grzeszów",
    "type": "potok",
    "latitude": 49.32,
    "longitude": 19.59
  },
  {
    "name": "Grześ",
    "type": "góra, szczyt",
    "latitude": 49.14,
    "longitude": 19.46
  },
  {
    "name": "Grześkowa Grapa",
    "type": "zbocze, stok",
    "latitude": 49.22,
    "longitude": 20.03
  },
  {
    "name": "Grześków Wierch",
    "type": "wzgórze, wzniesienie",
    "latitude": 49.23,
    "longitude": 20.03
  },
  {
    "name": "Grześkówki",
    "type": "góra, szczyt",
    "latitude": 49.16,
    "longitude": 19.56
  },
  {
    "name": "Grzędy",
    "type": "zbocze, stok",
    "latitude": 49.13,
    "longitude": 19.59
  },
  {
    "name": "Grzonków Potok",
    "type": "potok",
    "latitude": 49.24,
    "longitude": 20.1
  },
  {
    "name": "Grzybowiec",
    "type": "góra, szczyt",
    "latitude": 49.15,
    "longitude": 19.55
  },
  {
    "name": "Dolina Grzybowiecka",
    "type": "dolina",
    "latitude": 49.15,
    "longitude": 19.55
  },
  {
    "name": "Grzybowiecki Potok",
    "type": "potok",
    "latitude": 49.15,
    "longitude": 19.55
  },
  {
    "name": "Gubalec",
    "type": "góra, szczyt",
    "latitude": 49.13,
    "longitude": 19.52
  },
  {
    "name": "Pogórze Gubałowskie",
    "type": "region naturalny",
    "latitude": 49.18,
    "longitude": 19.55
  },
  {
    "name": "Gubałówka",
    "type": "góra, szczyt",
    "latitude": 49.18,
    "longitude": 19.55
  },
  {
    "name": "Kubernasówka",
    "type": "łąka",
    "latitude": 49.33,
    "longitude": 19.34
  },
  {
    "name": "Gutowski Potok",
    "type": "potok",
    "latitude": 49.19,
    "longitude": 19.59
  },
  {
    "name": "Gutów Potok",
    "type": "potok",
    "latitude": 49.22,
    "longitude": 20.0
  },
  {
    "name": "Guzałówka",
    "type": "polana",
    "latitude": 49.18,
    "longitude": 19.47
  },
  {
    "name": "Halszczyna Góra",
    "type": "góra, szczyt",
    "latitude": 49.21,
    "longitude": 20.18
  },
  {
    "name": "Hala za Mnichem",
    "type": "hala",
    "latitude": 49.11,
    "longitude": 20.03
  },
  {
    "name": "Hale Gorcowskie",
    "type": "hala",
    "latitude": 49.32,
    "longitude": 20.15
  },
  {
    "name": "Haneczków",
    "type": "polana",
    "latitude": 49.3,
    "longitude": 20.06
  },
  {
    "name": "Hankiborg",
    "type": "wzgórze, wzniesienie",
    "latitude": 49.25,
    "longitude": 20.02
  },
  {
    "name": "Hanuszowski",
    "type": "potok",
    "latitude": 49.21,
    "longitude": 20.17
  },
  {
    "name": "Starowiński",
    "type": "potok",
    "latitude": 49.23,
    "longitude": 20.19
  },
  {
    "name": "Hawiarski",
    "type": "potok",
    "latitude": 49.21,
    "longitude": 20.17
  },
  {
    "name": "Habryłówka",
    "type": "polana",
    "latitude": 49.17,
    "longitude": 19.5
  },
  {
    "name": "Herbik",
    "type": "góra, szczyt",
    "latitude": 49.15,
    "longitude": 20.0
  },
  {
    "name": "Hińczowa Przełęcz",
    "type": "przełęcz",
    "latitude": 49.11,
    "longitude": 20.03
  },
  {
    "name": "Hińczowa Turnia",
    "type": "góra, szczyt",
    "latitude": 49.1,
    "longitude": 20.04
  },
  {
    "name": "Hińczowe Czuby",
    "type": "grań",
    "latitude": 49.1,
    "longitude": 20.04
  },
  {
    "name": "Hlińska Przełęcz",
    "type": "przełęcz",
    "latitude": 49.12,
    "longitude": 19.52
  },
  {
    "name": "Hoborgowy Potok",
    "type": "potok",
    "latitude": 49.27,
    "longitude": 20.14
  },
  {
    "name": "Kopylec",
    "type": "góra, szczyt",
    "latitude": 49.2,
    "longitude": 20.12
  },
  {
    "name": "Horników Wierch",
    "type": "góra, szczyt",
    "latitude": 49.22,
    "longitude": 20.04
  },
  {
    "name": "Kotarne",
    "type": "potok",
    "latitude": 49.24,
    "longitude": 20.13
  },
  {
    "name": "Howyż",
    "type": "góra, szczyt",
    "latitude": 49.23,
    "longitude": 20.13
  },
  {
    "name": "Hrubas",
    "type": "góra, szczyt",
    "latitude": 49.14,
    "longitude": 19.48
  },
  {
    "name": "Hrube",
    "type": "góra, szczyt",
    "latitude": 49.31,
    "longitude": 20.03
  },
  {
    "name": "Hrubiański Potok",
    "type": "potok",
    "latitude": 49.19,
    "longitude": 20.01
  },
  {
    "name": "Hruby Piarg",
    "type": "piarg",
    "latitude": 49.12,
    "longitude": 20.02
  },
  {
    "name": "Hruby Regiel",
    "type": "góra, szczyt",
    "latitude": 49.16,
    "longitude": 19.53
  },
  {
    "name": "Chruście",
    "type": "łąki",
    "latitude": 49.28,
    "longitude": 20.11
  },
  {
    "name": "Huba",
    "type": "góra, szczyt",
    "latitude": 49.21,
    "longitude": 20.16
  },
  {
    "name": "Hubny Potok",
    "type": "potok",
    "latitude": 49.27,
    "longitude": 20.14
  },
  {
    "name": "Dolina Huciańska",
    "type": "dolina",
    "latitude": 49.15,
    "longitude": 19.49
  },
  {
    "name": "Huciański Potok",
    "type": "potok",
    "latitude": 49.17,
    "longitude": 19.59
  },
  {
    "name": "Huciańskie Banie",
    "type": "uroczysko",
    "latitude": 49.15,
    "longitude": 19.49
  },
  {
    "name": "Huciańskie Siodło",
    "type": "przełęcz",
    "latitude": 49.15,
    "longitude": 19.49
  },
  {
    "name": "Huciska",
    "type": "polana",
    "latitude": 49.15,
    "longitude": 19.49
  },
  {
    "name": "Chudobowa",
    "type": "polana",
    "latitude": 49.32,
    "longitude": 20.02
  },
  {
    "name": "Humbarg",
    "type": "góra, szczyt",
    "latitude": 49.24,
    "longitude": 20.13
  },
  {
    "name": "Hunaj",
    "type": "góra, szczyt",
    "latitude": 49.24,
    "longitude": 20.12
  },
  {
    "name": "Góra Hunców",
    "type": "góra, szczyt",
    "latitude": 49.33,
    "longitude": 19.18
  },
  {
    "name": "Węgiersztuk",
    "type": "wzgórze, wzniesienie",
    "latitude": 49.26,
    "longitude": 20.1
  },
  {
    "name": "Hurchoci Wierch",
    "type": "wzgórze, wzniesienie",
    "latitude": 49.18,
    "longitude": 19.49
  },
  {
    "name": "Hurkotna Polana",
    "type": "polana",
    "latitude": 49.17,
    "longitude": 20.07
  },
  {
    "name": "Chygowa",
    "type": "łąka",
    "latitude": 49.26,
    "longitude": 20.12
  },
  {
    "name": "Hyrby",
    "type": "polana",
    "latitude": 49.33,
    "longitude": 20.02
  },
  {
    "name": "Igła",
    "type": "góra, szczyt",
    "latitude": 49.15,
    "longitude": 19.57
  },
  {
    "name": "Iwaniacka Przełęcz",
    "type": "przełęcz",
    "latitude": 49.13,
    "longitude": 19.5
  },
  {
    "name": "Iwaniacki Potok",
    "type": "potok",
    "latitude": 49.14,
    "longitude": 19.48
  },
  {
    "name": "Dolina Iwaniacka",
    "type": "dolina",
    "latitude": 49.14,
    "longitude": 19.49
  },
  {
    "name": "Iwanowski Potok",
    "type": "potok",
    "latitude": 49.13,
    "longitude": 19.51
  },
  {
    "name": "Iwanówka",
    "type": "hala",
    "latitude": 49.14,
    "longitude": 19.49
  },
  {
    "name": "Iwanówki",
    "type": "łąki",
    "latitude": 49.18,
    "longitude": 19.51
  },
  {
    "name": "Iwański",
    "type": "potok",
    "latitude": 49.19,
    "longitude": 19.49
  },
  {
    "name": "Iwański Wierch",
    "type": "góra, szczyt",
    "latitude": 49.18,
    "longitude": 19.51
  },
  {
    "name": "Izbiska",
    "type": "łąka",
    "latitude": 49.25,
    "longitude": 20.15
  },
  {
    "name": "Jaferowy Grzbiet",
    "type": "góra, szczyt",
    "latitude": 49.12,
    "longitude": 19.51
  },
  {
    "name": "Jaferowy Żleb",
    "type": "żleb",
    "latitude": 49.12,
    "longitude": 19.52
  },
  {
    "name": "Jagiełłówki",
    "type": "polana",
    "latitude": 49.33,
    "longitude": 20.15
  },
  {
    "name": "Jaskinia Jagnięca",
    "type": "jaskinia, grota",
    "latitude": 49.14,
    "longitude": 19.52
  },
  {
    "name": "Góra Jagodna",
    "type": "góra, szczyt",
    "latitude": 49.33,
    "longitude": 19.5
  },
  {
    "name": "Jakubia Góra",
    "type": "góra, szczyt",
    "latitude": 49.23,
    "longitude": 20.16
  },
  {
    "name": "Jałowiarczysko",
    "type": "zbocze, stok",
    "latitude": 49.15,
    "longitude": 19.59
  },
  {
    "name": "Jambrowy Wierch",
    "type": "góra, szczyt",
    "latitude": 49.14,
    "longitude": 19.46
  },
  {
    "name": "Jamne",
    "type": "potok",
    "latitude": 49.3,
    "longitude": 20.14
  },
  {
    "name": "Jamów Chyżny",
    "type": "potok",
    "latitude": 49.24,
    "longitude": 19.42
  },
  {
    "name": "Jamrychówka",
    "type": "uroczysko-dawna miejscowość",
    "latitude": 49.17,
    "longitude": 19.52
  },
  {
    "name": "Jamska Czuba",
    "type": "góra, szczyt",
    "latitude": 49.15,
    "longitude": 19.49
  },
  {
    "name": "Jamy",
    "type": "polana",
    "latitude": 49.15,
    "longitude": 19.49
  },
  {
    "name": "Janciszka",
    "type": "polana",
    "latitude": 49.33,
    "longitude": 19.2
  },
  {
    "name": "Janczura",
    "type": "hala",
    "latitude": 49.33,
    "longitude": 20.13
  },
  {
    "name": "Jande",
    "type": "łąka",
    "latitude": 49.2,
    "longitude": 19.51
  },
  {
    "name": "Janiłówka",
    "type": "góra, szczyt",
    "latitude": 49.31,
    "longitude": 19.56
  },
  {
    "name": "Jankowa Dolina",
    "type": "dolina",
    "latitude": 49.28,
    "longitude": 20.16
  },
  {
    "name": "Jankulakowski Wierch",
    "type": "wzgórze, wzniesienie",
    "latitude": 49.22,
    "longitude": 20.04
  },
  {
    "name": "Janoszów Wierch",
    "type": "góra, szczyt",
    "latitude": 49.18,
    "longitude": 20.0
  },
  {
    "name": "Janowska Kopa",
    "type": "góra, szczyt",
    "latitude": 49.21,
    "longitude": 20.11
  },
  {
    "name": "Jańcza",
    "type": "polana",
    "latitude": 49.31,
    "longitude": 20.03
  },
  {
    "name": "Jarczysko",
    "type": "polana",
    "latitude": 49.16,
    "longitude": 19.59
  },
  {
    "name": "Jarosówki",
    "type": "łąka",
    "latitude": 49.25,
    "longitude": 19.55
  },
  {
    "name": "Jarząbcza Przełęcz",
    "type": "przełęcz",
    "latitude": 49.12,
    "longitude": 19.48
  },
  {
    "name": "Jarząbcza Rówień",
    "type": "cyrk lodowcowy",
    "latitude": 49.12,
    "longitude": 19.47
  },
  {
    "name": "Dolina Jarzębcza",
    "type": "dolina",
    "latitude": 49.13,
    "longitude": 19.47
  },
  {
    "name": "Hala Jarząbcza",
    "type": "hala",
    "latitude": 49.13,
    "longitude": 19.47
  },
  {
    "name": "Jarząbczak",
    "type": "dolina",
    "latitude": 49.17,
    "longitude": 20.04
  },
  {
    "name": "Jarząbcze Rówienki",
    "type": "polana",
    "latitude": 49.12,
    "longitude": 19.47
  },
  {
    "name": "Jarząbcze Szałasiska",
    "type": "polana",
    "latitude": 49.13,
    "longitude": 19.47
  },
  {
    "name": "Jarząbczy Potok",
    "type": "potok",
    "latitude": 49.13,
    "longitude": 19.47
  },
  {
    "name": "Jarząbczy Upłaz",
    "type": "góra, szczyt",
    "latitude": 49.13,
    "longitude": 19.47
  },
  {
    "name": "Jarząbczy Wierch",
    "type": "góra, szczyt",
    "latitude": 49.11,
    "longitude": 19.47
  },
  {
    "name": "Jasiorów Żleb",
    "type": "żleb",
    "latitude": 49.14,
    "longitude": 19.47
  },
  {
    "name": "Jasiowe Turnie",
    "type": "skały",
    "latitude": 49.16,
    "longitude": 19.54
  },
  {
    "name": "Jasiowski Potok",
    "type": "potok",
    "latitude": 49.27,
    "longitude": 19.4
  },
  {
    "name": "Jasiurowski Potok",
    "type": "potok",
    "latitude": 49.32,
    "longitude": 19.37
  },
  {
    "name": "Jaskinia w Czubie Jaworzyńskiej",
    "type": "jaskinia, grota",
    "latitude": 49.15,
    "longitude": 19.59
  },
  {
    "name": "Jastrzębia Turnia",
    "type": "skała",
    "latitude": 49.16,
    "longitude": 19.58
  },
  {
    "name": "Jaszcze",
    "type": "potok",
    "latitude": 49.3,
    "longitude": 20.14
  },
  {
    "name": "Jaskinia Jaszczurowska Wodna",
    "type": "jaskinia, grota",
    "latitude": 49.17,
    "longitude": 20.0
  },
  {
    "name": "Jaskinia Jaszczurowska Wyżnia",
    "type": "jaskinia, grota",
    "latitude": 49.16,
    "longitude": 20.0
  },
  {
    "name": "Jaszczurów",
    "type": "potok",
    "latitude": 49.24,
    "longitude": 19.52
  },
  {
    "name": "Jatki",
    "type": "skała",
    "latitude": 49.15,
    "longitude": 19.55
  },
  {
    "name": "Jaworowy Potok",
    "type": "potok",
    "latitude": 49.19,
    "longitude": 20.09
  },
  {
    "name": "Jaworzyna",
    "type": "polana",
    "latitude": 49.32,
    "longitude": 20.06
  },
  {
    "name": "Jaworzyna Kamienicka",
    "type": "góra, szczyt",
    "latitude": 49.32,
    "longitude": 20.09
  },
  {
    "name": "Jaworzyna Lejowa",
    "type": "polana",
    "latitude": 49.15,
    "longitude": 19.5
  },
  {
    "name": "Jaworzyna Rusinowa",
    "type": "hala",
    "latitude": 49.15,
    "longitude": 20.05
  },
  {
    "name": "Jaworzynka",
    "type": "polana",
    "latitude": 49.32,
    "longitude": 20.05
  },
  {
    "name": "Jaworzynka Miętusia",
    "type": "polana",
    "latitude": 49.15,
    "longitude": 19.53
  },
  {
    "name": "Jaworzynki",
    "type": "polana",
    "latitude": 49.29,
    "longitude": 20.19
  },
  {
    "name": "Jaworzyńska Czuba",
    "type": "góra, szczyt",
    "latitude": 49.14,
    "longitude": 19.59
  },
  {
    "name": "Jaworzyńska Przełęcz",
    "type": "przełęcz",
    "latitude": 49.14,
    "longitude": 19.59
  },
  {
    "name": "Jaworzyński Przysłop",
    "type": "góra, szczyt",
    "latitude": 49.15,
    "longitude": 19.48
  },
  {
    "name": "Jaworzyński Źleb",
    "type": "żleb",
    "latitude": 49.16,
    "longitude": 20.03
  },
  {
    "name": "Jaworzyńskie Czoła",
    "type": "grań",
    "latitude": 49.15,
    "longitude": 19.58
  },
  {
    "name": "Jedyniak",
    "type": "jezioro",
    "latitude": 49.14,
    "longitude": 19.59
  },
  {
    "name": "Jeleśnia",
    "type": "potok",
    "latitude": 49.24,
    "longitude": 19.37
  },
  {
    "name": "Jelinka",
    "type": "skała",
    "latitude": 49.16,
    "longitude": 19.55
  },
  {
    "name": "Jesionkowski",
    "type": "potok",
    "latitude": 49.19,
    "longitude": 20.01
  },
  {
    "name": "Jędrasz",
    "type": "góra, szczyt",
    "latitude": 49.23,
    "longitude": 20.18
  },
  {
    "name": "Jędraszcz",
    "type": "potok",
    "latitude": 49.32,
    "longitude": 19.48
  },
  {
    "name": "Jędrusiowa Dziura",
    "type": "jaskinia, grota",
    "latitude": 49.14,
    "longitude": 19.55
  },
  {
    "name": "Jodłowcowa",
    "type": "hala",
    "latitude": 49.32,
    "longitude": 19.18
  },
  {
    "name": "Juhasi Groń",
    "type": "góra, szczyt",
    "latitude": 49.24,
    "longitude": 19.54
  },
  {
    "name": "Jaskinia Juhaska",
    "type": "jaskinia, grota",
    "latitude": 49.15,
    "longitude": 19.56
  },
  {
    "name": "Juhaskie Moczydło",
    "type": "polana",
    "latitude": 49.14,
    "longitude": 20.02
  },
  {
    "name": "Juraniowa Przełęcz",
    "type": "przełęcz",
    "latitude": 49.15,
    "longitude": 19.47
  },
  {
    "name": "Jurgowska Góra",
    "type": "góra, szczyt",
    "latitude": 49.25,
    "longitude": 20.11
  },
  {
    "name": "Jurgowczyk",
    "type": "potok",
    "latitude": 49.21,
    "longitude": 20.07
  },
  {
    "name": "Polana Jurkowa",
    "type": "polana",
    "latitude": 49.33,
    "longitude": 19.21
  },
  {
    "name": "Jurkowski",
    "type": "potok",
    "latitude": 49.31,
    "longitude": 20.16
  },
  {
    "name": "Kabat",
    "type": "urwisko",
    "latitude": 49.28,
    "longitude": 20.12
  },
  {
    "name": "Kacwinianka",
    "type": "rzeka",
    "latitude": 49.23,
    "longitude": 20.17
  },
  {
    "name": "Kacwiński",
    "type": "potok",
    "latitude": 49.24,
    "longitude": 20.16
  },
  {
    "name": "Kaczmarka",
    "type": "łąka",
    "latitude": 49.25,
    "longitude": 19.47
  },
  {
    "name": "Kaczy Zamek",
    "type": "polana",
    "latitude": 49.22,
    "longitude": 20.18
  },
  {
    "name": "Kadukowski Potok",
    "type": "potok",
    "latitude": 49.18,
    "longitude": 19.59
  },
  {
    "name": "Kalacka Kopa",
    "type": "góra, szczyt",
    "latitude": 49.15,
    "longitude": 19.57
  },
  {
    "name": "Kalacka Turnia",
    "type": "góra, szczyt",
    "latitude": 49.15,
    "longitude": 19.57
  },
  {
    "name": "Jaskinia Kalacka",
    "type": "jaskinia, grota",
    "latitude": 49.15,
    "longitude": 19.58
  },
  {
    "name": "Kalacki Upłaz",
    "type": "zbocze, stok",
    "latitude": 49.15,
    "longitude": 19.57
  },
  {
    "name": "Kalackie Koryto",
    "type": "żleb",
    "latitude": 49.15,
    "longitude": 19.57
  },
  {
    "name": "Kalackie Siodło",
    "type": "przełęcz",
    "latitude": 49.15,
    "longitude": 19.57
  },
  {
    "name": "Kalatówki",
    "type": "polana",
    "latitude": 49.15,
    "longitude": 19.58
  },
  {
    "name": "Kalwaria",
    "type": "skała",
    "latitude": 49.15,
    "longitude": 19.49
  },
  {
    "name": "Kałużna",
    "type": "polana",
    "latitude": 49.32,
    "longitude": 20.04
  },
  {
    "name": "Potok Kałużowy",
    "type": "potok",
    "latitude": 49.25,
    "longitude": 19.47
  },
  {
    "name": "Kamienica",
    "type": "rzeka",
    "latitude": 49.32,
    "longitude": 20.06
  },
  {
    "name": "Kamieniec",
    "type": "góra, szczyt",
    "latitude": 49.29,
    "longitude": 19.45
  },
  {
    "name": "Kamienista",
    "type": "góra, szczyt",
    "latitude": 49.11,
    "longitude": 19.52
  },
  {
    "name": "Kamienisty Żleb",
    "type": "żleb",
    "latitude": 49.13,
    "longitude": 19.53
  },
  {
    "name": "Kamienne",
    "type": "skały",
    "latitude": 49.14,
    "longitude": 19.54
  },
  {
    "name": "Kamienne Mleko",
    "type": "jaskinia, grota",
    "latitude": 49.14,
    "longitude": 19.48
  },
  {
    "name": "Kamienne Tomanowe",
    "type": "wąwóz",
    "latitude": 49.13,
    "longitude": 19.53
  },
  {
    "name": "Kamienny Mostek",
    "type": "potok",
    "latitude": 49.31,
    "longitude": 19.57
  },
  {
    "name": "Kamienny Źleb",
    "type": "żleb",
    "latitude": 49.15,
    "longitude": 19.49
  },
  {
    "name": "Kania",
    "type": "potok",
    "latitude": 49.33,
    "longitude": 20.08
  },
  {
    "name": "Kanina",
    "type": "polana",
    "latitude": 49.33,
    "longitude": 20.04
  },
  {
    "name": "Kaniowski Potok",
    "type": "potok",
    "latitude": 49.22,
    "longitude": 20.06
  },
  {
    "name": "Kapelusze",
    "type": "skała",
    "latitude": 49.15,
    "longitude": 19.55
  },
  {
    "name": "Karb",
    "type": "przełęcz",
    "latitude": 49.13,
    "longitude": 20.0
  },
  {
    "name": "Karbik",
    "type": "przełęcz",
    "latitude": 49.14,
    "longitude": 20.04
  },
  {
    "name": "Karbówka",
    "type": "góra, szczyt",
    "latitude": 49.24,
    "longitude": 19.56
  },
  {
    "name": "Karby",
    "type": "zbocze, stok",
    "latitude": 49.14,
    "longitude": 19.56
  },
  {
    "name": "Karczma",
    "type": "zbocze, stok",
    "latitude": 49.14,
    "longitude": 19.49
  },
  {
    "name": "Karczmisko",
    "type": "skała",
    "latitude": 49.13,
    "longitude": 19.53
  },
  {
    "name": "Hala Karnieniecka",
    "type": "hala",
    "latitude": 49.32,
    "longitude": 19.18
  },
  {
    "name": "Karpenciny",
    "type": "góra, szczyt",
    "latitude": 49.18,
    "longitude": 20.06
  },
  {
    "name": "Jaskinia Kasprowa Niżnia",
    "type": "jaskinia, grota",
    "latitude": 49.15,
    "longitude": 19.58
  },
  {
    "name": "Kasprowa Polana",
    "type": "polana",
    "latitude": 49.15,
    "longitude": 19.58
  },
  {
    "name": "Jaskinia Kasprowa Średnia",
    "type": "jaskinia, grota",
    "latitude": 49.15,
    "longitude": 19.59
  },
  {
    "name": "Jaskinia Kasprowa Wyżnia",
    "type": "jaskinia, grota",
    "latitude": 49.15,
    "longitude": 19.59
  },
  {
    "name": "Dolina Kasprowa",
    "type": "dolina",
    "latitude": 49.15,
    "longitude": 19.58
  },
  {
    "name": "Hala Kasprowa",
    "type": "hala",
    "latitude": 49.14,
    "longitude": 19.59
  },
  {
    "name": "Kasprowy Kocioł",
    "type": "cyrk lodowcowy",
    "latitude": 49.13,
    "longitude": 19.59
  },
  {
    "name": "Kasprowy Potok",
    "type": "potok",
    "latitude": 49.15,
    "longitude": 19.58
  },
  {
    "name": "Kasprowy Stawek",
    "type": "jezioro",
    "latitude": 49.15,
    "longitude": 19.58
  },
  {
    "name": "Kasprowy Wierch",
    "type": "góra, szczyt",
    "latitude": 49.13,
    "longitude": 19.58
  },
  {
    "name": "Kopa nad Białym",
    "type": "góra, szczyt",
    "latitude": 49.16,
    "longitude": 19.57
  },
  {
    "name": "Kazalnica",
    "type": "skała",
    "latitude": 49.14,
    "longitude": 19.51
  },
  {
    "name": "Koziorka",
    "type": "polana",
    "latitude": 49.32,
    "longitude": 19.12
  },
  {
    "name": "Kaziorka",
    "type": "hala",
    "latitude": 49.32,
    "longitude": 19.13
  },
  {
    "name": "Kąciki",
    "type": "łąka",
    "latitude": 49.25,
    "longitude": 20.19
  },
  {
    "name": "Kącina",
    "type": "łąka",
    "latitude": 49.32,
    "longitude": 19.59
  },
  {
    "name": "Kępa",
    "type": "góra, szczyt",
    "latitude": 49.12,
    "longitude": 20.04
  },
  {
    "name": "Kiczora",
    "type": "góra, szczyt",
    "latitude": 49.32,
    "longitude": 20.08
  },
  {
    "name": "Kiczorka",
    "type": "potok",
    "latitude": 49.3,
    "longitude": 19.35
  },
  {
    "name": "Kidunowski Potok",
    "type": "potok",
    "latitude": 49.32,
    "longitude": 19.36
  },
  {
    "name": "Kierbag",
    "type": "góra, szczyt",
    "latitude": 49.28,
    "longitude": 20.1
  },
  {
    "name": "Kiernia",
    "type": "góra, szczyt",
    "latitude": 49.15,
    "longitude": 19.55
  },
  {
    "name": "Kierniczka",
    "type": "skała",
    "latitude": 49.15,
    "longitude": 19.55
  },
  {
    "name": "Kierówka",
    "type": "góra, szczyt",
    "latitude": 49.3,
    "longitude": 19.53
  },
  {
    "name": "Kieszonki",
    "type": "zbocze, stok",
    "latitude": 49.12,
    "longitude": 20.03
  },
  {
    "name": "Kieszonkowe Turnie",
    "type": "skały",
    "latitude": 49.12,
    "longitude": 20.03
  },
  {
    "name": "Kiety",
    "type": "łąka",
    "latitude": 49.25,
    "longitude": 19.55
  },
  {
    "name": "Kijowa",
    "type": "polana",
    "latitude": 49.31,
    "longitude": 20.04
  },
  {
    "name": "Kijów",
    "type": "potok",
    "latitude": 49.19,
    "longitude": 19.52
  },
  {
    "name": "Kiry",
    "type": "zbocze, stok",
    "latitude": 49.13,
    "longitude": 20.05
  },
  {
    "name": "Żleb Kirkora",
    "type": "żleb",
    "latitude": 49.15,
    "longitude": 19.55
  },
  {
    "name": "Kirowa Woda",
    "type": "potok",
    "latitude": 49.17,
    "longitude": 19.51
  },
  {
    "name": "Kirowe Kopki",
    "type": "skały",
    "latitude": 49.11,
    "longitude": 20.02
  },
  {
    "name": "Kirowy Upłaz",
    "type": "zbocze, stok",
    "latitude": 49.11,
    "longitude": 20.02
  },
  {
    "name": "Klasztory",
    "type": "skały",
    "latitude": 49.15,
    "longitude": 19.56
  },
  {
    "name": "Klikuszówka",
    "type": "potok",
    "latitude": 49.29,
    "longitude": 20.01
  },
  {
    "name": "Klimkówka",
    "type": "polana",
    "latitude": 49.17,
    "longitude": 20.06
  },
  {
    "name": "Klinowa Czuba",
    "type": "góra, szczyt",
    "latitude": 49.15,
    "longitude": 19.49
  },
  {
    "name": "Klinowa Grapa",
    "type": "góra, szczyt",
    "latitude": 49.3,
    "longitude": 19.5
  },
  {
    "name": "Klinowe Siodło",
    "type": "przełęcz",
    "latitude": 49.15,
    "longitude": 19.49
  },
  {
    "name": "Huciański Klin",
    "type": "góra, szczyt",
    "latitude": 49.15,
    "longitude": 19.49
  },
  {
    "name": "Kliny",
    "type": "skały",
    "latitude": 49.14,
    "longitude": 19.49
  },
  {
    "name": "Kluszkowianka",
    "type": "potok",
    "latitude": 49.26,
    "longitude": 20.18
  },
  {
    "name": "Kminowa",
    "type": "góra, szczyt",
    "latitude": 49.32,
    "longitude": 19.37
  },
  {
    "name": "Knurowska Przełęcz",
    "type": "przełęcz",
    "latitude": 49.3,
    "longitude": 20.11
  },
  {
    "name": "Potok Knurowski",
    "type": "potok",
    "latitude": 49.28,
    "longitude": 20.12
  },
  {
    "name": "Kobyla Głowa",
    "type": "skała",
    "latitude": 49.14,
    "longitude": 19.48
  },
  {
    "name": "Kobylarka",
    "type": "polana",
    "latitude": 49.33,
    "longitude": 19.51
  },
  {
    "name": "Kobylarz",
    "type": "polana",
    "latitude": 49.14,
    "longitude": 19.54
  },
  {
    "name": "Kobylarzowa Turnia",
    "type": "góra, szczyt",
    "latitude": 49.14,
    "longitude": 19.54
  },
  {
    "name": "Kobylarzowy Żleb",
    "type": "żleb",
    "latitude": 49.14,
    "longitude": 19.54
  },
  {
    "name": "Kobyle Głowy",
    "type": "góra, szczyt",
    "latitude": 49.15,
    "longitude": 19.49
  },
  {
    "name": "Kobyła",
    "type": "góra, szczyt",
    "latitude": 49.16,
    "longitude": 20.02
  },
  {
    "name": "Kochy",
    "type": "zbocze, stok",
    "latitude": 49.14,
    "longitude": 19.56
  },
  {
    "name": "Kocigłówki",
    "type": "polana",
    "latitude": 49.31,
    "longitude": 20.03
  },
  {
    "name": "Kocioł Kazalnicy",
    "type": "cyrk lodowcowy",
    "latitude": 49.11,
    "longitude": 20.04
  },
  {
    "name": "Kocioł pod Rysami",
    "type": "cyrk lodowcowy",
    "latitude": 49.1,
    "longitude": 20.04
  },
  {
    "name": "Kocioł Świstowy",
    "type": "cyrk lodowcowy",
    "latitude": 49.14,
    "longitude": 20.03
  },
  {
    "name": "Kocurka",
    "type": "polana",
    "latitude": 49.33,
    "longitude": 20.05
  },
  {
    "name": "Kohut",
    "type": "skały",
    "latitude": 49.15,
    "longitude": 19.54
  },
  {
    "name": "Kokoszków",
    "type": "potok",
    "latitude": 49.29,
    "longitude": 20.03
  },
  {
    "name": "Koleba pod Chłopkiem",
    "type": "jaskinia, grota",
    "latitude": 49.11,
    "longitude": 20.04
  },
  {
    "name": "Kolebiska",
    "type": "zbocze, stok",
    "latitude": 49.15,
    "longitude": 19.59
  },
  {
    "name": "Kolesa",
    "type": "skała",
    "latitude": 49.14,
    "longitude": 19.49
  },
  {
    "name": "Koło",
    "type": "polana",
    "latitude": 49.15,
    "longitude": 19.56
  },
  {
    "name": "Kołowa Czuba",
    "type": "góra, szczyt",
    "latitude": 49.12,
    "longitude": 20.01
  },
  {
    "name": "Kominek Giewontowy",
    "type": "jaskinia, grota",
    "latitude": 49.15,
    "longitude": 19.56
  },
  {
    "name": "Kominiarska Przełęcz",
    "type": "przełęcz",
    "latitude": 49.15,
    "longitude": 19.5
  },
  {
    "name": "Kominiarska Rówień",
    "type": "polana",
    "latitude": 49.14,
    "longitude": 19.5
  },
  {
    "name": "Przysłop Kominiarski",
    "type": "przełęcz",
    "latitude": 49.15,
    "longitude": 19.51
  },
  {
    "name": "Kominiarski Wierch",
    "type": "góra, szczyt",
    "latitude": 49.14,
    "longitude": 19.5
  },
  {
    "name": "Kominiarskie Siodło",
    "type": "przełęcz",
    "latitude": 49.15,
    "longitude": 19.5
  },
  {
    "name": "Kominy Dudowe",
    "type": "hala",
    "latitude": 49.14,
    "longitude": 19.49
  },
  {
    "name": "Kominy Tylkowe",
    "type": "hala",
    "latitude": 49.14,
    "longitude": 19.5
  },
  {
    "name": "Komora Gwiaździsta",
    "type": "jaskinia, grota",
    "latitude": 49.14,
    "longitude": 19.55
  },
  {
    "name": "Komorowski Wierch",
    "type": "wzgórze, wzniesienie",
    "latitude": 49.29,
    "longitude": 20.16
  },
  {
    "name": "Kopa Kondracka",
    "type": "góra, szczyt",
    "latitude": 49.14,
    "longitude": 19.55
  },
  {
    "name": "Przełęcz Kondracka",
    "type": "przełęcz",
    "latitude": 49.14,
    "longitude": 19.55
  },
  {
    "name": "Kondratowa Polana",
    "type": "polana",
    "latitude": 49.14,
    "longitude": 19.56
  },
  {
    "name": "Dolina Kondratowa",
    "type": "dolina",
    "latitude": 49.14,
    "longitude": 19.56
  },
  {
    "name": "Hala Kondratowa",
    "type": "hala",
    "latitude": 49.14,
    "longitude": 19.57
  },
  {
    "name": "Kondratowy Wierch",
    "type": "góra, szczyt",
    "latitude": 49.14,
    "longitude": 19.57
  },
  {
    "name": "Koniarnia",
    "type": "polana",
    "latitude": 49.15,
    "longitude": 19.48
  },
  {
    "name": "Koninka",
    "type": "potok",
    "latitude": 49.32,
    "longitude": 20.06
  },
  {
    "name": "Konopków Wierch",
    "type": "góra, szczyt",
    "latitude": 49.22,
    "longitude": 19.53
  },
  {
    "name": "Kunowski Potok",
    "type": "potok",
    "latitude": 49.2,
    "longitude": 20.03
  },
  {
    "name": "Koń",
    "type": "góra, szczyt",
    "latitude": 49.32,
    "longitude": 20.19
  },
  {
    "name": "Dziura Niżnia w Kończystej Turni",
    "type": "jaskinia, grota",
    "latitude": 49.15,
    "longitude": 19.52
  },
  {
    "name": "Kończysta Turnia",
    "type": "skała",
    "latitude": 49.15,
    "longitude": 19.52
  },
  {
    "name": "Kończysty Wierch",
    "type": "góra, szczyt",
    "latitude": 49.12,
    "longitude": 19.48
  },
  {
    "name": "Koński Cmentarz",
    "type": "uroczysko",
    "latitude": 49.24,
    "longitude": 19.42
  },
  {
    "name": "Koński Łęk",
    "type": "zbocze, stok",
    "latitude": 49.23,
    "longitude": 19.43
  },
  {
    "name": "Koński Żleb",
    "type": "żleb",
    "latitude": 49.15,
    "longitude": 19.56
  },
  {
    "name": "Kopa",
    "type": "góra, szczyt",
    "latitude": 49.12,
    "longitude": 19.52
  },
  {
    "name": "Kopa Królowa Mała",
    "type": "góra, szczyt",
    "latitude": 49.15,
    "longitude": 20.0
  },
  {
    "name": "Kopa Królowa Wielka",
    "type": "góra, szczyt",
    "latitude": 49.15,
    "longitude": 20.0
  },
  {
    "name": "Kopa Magury",
    "type": "góra, szczyt",
    "latitude": 49.14,
    "longitude": 20.0
  },
  {
    "name": "Kopa nad Wrotami",
    "type": "góra, szczyt",
    "latitude": 49.11,
    "longitude": 20.02
  },
  {
    "name": "Kopa Prawdy",
    "type": "góra, szczyt",
    "latitude": 49.12,
    "longitude": 19.47
  },
  {
    "name": "Kopa pod Ptakiem",
    "type": "skała",
    "latitude": 49.13,
    "longitude": 20.02
  },
  {
    "name": "Kopanice",
    "type": "łąki",
    "latitude": 49.28,
    "longitude": 19.53
  },
  {
    "name": "Kopiec",
    "type": "góra, szczyt",
    "latitude": 49.32,
    "longitude": 19.18
  },
  {
    "name": "Kopieniec",
    "type": "góra, szczyt",
    "latitude": 49.14,
    "longitude": 19.48
  },
  {
    "name": "Kopieńcowy Przechód",
    "type": "przełęcz",
    "latitude": 49.14,
    "longitude": 19.48
  },
  {
    "name": "Kopki",
    "type": "góry",
    "latitude": 49.15,
    "longitude": 19.51
  },
  {
    "name": "Koprowa Studnia",
    "type": "jaskinia, grota",
    "latitude": 49.14,
    "longitude": 19.55
  },
  {
    "name": "Dolina Koprowa",
    "type": "żleb",
    "latitude": 49.14,
    "longitude": 19.55
  },
  {
    "name": "Kopy Sołtysie",
    "type": "góry",
    "latitude": 49.16,
    "longitude": 20.03
  },
  {
    "name": "Kordoń",
    "type": "góra, szczyt",
    "latitude": 49.31,
    "longitude": 19.36
  },
  {
    "name": "Korowa Skała",
    "type": "skała",
    "latitude": 49.25,
    "longitude": 20.08
  },
  {
    "name": "Koryciańska Czuba",
    "type": "góra, szczyt",
    "latitude": 49.16,
    "longitude": 19.48
  },
  {
    "name": "Koryciańska Siklawa",
    "type": "potok",
    "latitude": 49.16,
    "longitude": 19.48
  },
  {
    "name": "Koryciańskie Turnie",
    "type": "skały",
    "latitude": 49.16,
    "longitude": 19.48
  },
  {
    "name": "Koryciska",
    "type": "skały",
    "latitude": 49.16,
    "longitude": 19.57
  },
  {
    "name": "Korytarz nad Dziurawem",
    "type": "jaskinia, grota",
    "latitude": 49.14,
    "longitude": 19.53
  },
  {
    "name": "Korytarz nad Piargiem",
    "type": "jaskinia, grota",
    "latitude": 49.14,
    "longitude": 19.54
  },
  {
    "name": "Jaskinia Korytarzowa",
    "type": "jaskinia, grota",
    "latitude": 49.15,
    "longitude": 19.59
  },
  {
    "name": "Koryto",
    "type": "żleb",
    "latitude": 49.13,
    "longitude": 20.03
  },
  {
    "name": "Kosarki",
    "type": "polana",
    "latitude": 49.29,
    "longitude": 20.15
  },
  {
    "name": "Koszarzyska",
    "type": "polana",
    "latitude": 49.17,
    "longitude": 19.49
  },
  {
    "name": "Kosiczne",
    "type": "potok",
    "latitude": 49.31,
    "longitude": 19.5
  },
  {
    "name": "Kosinka",
    "type": "góra, szczyt",
    "latitude": 49.3,
    "longitude": 20.17
  },
  {
    "name": "Kosowinowy Piarg",
    "type": "piarg",
    "latitude": 49.11,
    "longitude": 20.03
  },
  {
    "name": "Koszark",
    "type": "góra, szczyt",
    "latitude": 49.29,
    "longitude": 20.12
  },
  {
    "name": "Koszarków Wierch",
    "type": "wzgórze, wzniesienie",
    "latitude": 49.21,
    "longitude": 20.04
  },
  {
    "name": "Koszysta",
    "type": "grań",
    "latitude": 49.14,
    "longitude": 20.02
  },
  {
    "name": "Kościelcowa Przełęcz",
    "type": "przełęcz",
    "latitude": 49.13,
    "longitude": 20.0
  },
  {
    "name": "Kościelcowy Kocioł",
    "type": "cyrk lodowcowy",
    "latitude": 49.13,
    "longitude": 20.01
  },
  {
    "name": "Kościelec",
    "type": "góra, szczyt",
    "latitude": 49.13,
    "longitude": 20.0
  },
  {
    "name": "Dolina Kościeliska",
    "type": "dolina",
    "latitude": 49.15,
    "longitude": 19.52
  },
  {
    "name": "Kościeliski Potok",
    "type": "potok",
    "latitude": 49.15,
    "longitude": 19.52
  },
  {
    "name": "Kościołki",
    "type": "skały",
    "latitude": 49.13,
    "longitude": 19.53
  },
  {
    "name": "Kościół",
    "type": "skały",
    "latitude": 49.14,
    "longitude": 19.49
  },
  {
    "name": "Kotelnica",
    "type": "grań",
    "latitude": 49.12,
    "longitude": 20.01
  },
  {
    "name": "Kotelnicki Potok",
    "type": "potok",
    "latitude": 49.18,
    "longitude": 19.57
  },
  {
    "name": "Kotelniczne",
    "type": "polana",
    "latitude": 49.21,
    "longitude": 20.13
  },
  {
    "name": "Kotlarka",
    "type": "polana",
    "latitude": 49.31,
    "longitude": 20.02
  },
  {
    "name": "Kotlina",
    "type": "dolina",
    "latitude": 49.31,
    "longitude": 19.48
  },
  {
    "name": "Kotlinowy Stawek",
    "type": "jezioro",
    "latitude": 49.13,
    "longitude": 19.59
  },
  {
    "name": "Kotlinowy Wierch",
    "type": "góra, szczyt",
    "latitude": 49.16,
    "longitude": 20.01
  },
  {
    "name": "Kotliny",
    "type": "łąki",
    "latitude": 49.19,
    "longitude": 20.03
  },
  {
    "name": "Kotłowa Czubka",
    "type": "góra, szczyt",
    "latitude": 49.12,
    "longitude": 19.5
  },
  {
    "name": "Kotłowe Siodło",
    "type": "przełęcz",
    "latitude": 49.12,
    "longitude": 19.5
  },
  {
    "name": "Kotłowy Upłaz",
    "type": "zbocze, stok",
    "latitude": 49.12,
    "longitude": 19.5
  },
  {
    "name": "Kotły",
    "type": "zbocze, stok",
    "latitude": 49.12,
    "longitude": 19.5
  },
  {
    "name": "Kotrysówka",
    "type": "polana",
    "latitude": 49.18,
    "longitude": 20.06
  },
  {
    "name": "Polana Kowalowa",
    "type": "polana",
    "latitude": 49.29,
    "longitude": 20.16
  },
  {
    "name": "Kowalówka",
    "type": "łąki",
    "latitude": 49.28,
    "longitude": 19.58
  },
  {
    "name": "Kowaniec",
    "type": "zbocze, stok",
    "latitude": 49.16,
    "longitude": 19.49
  },
  {
    "name": "Mały Kowaniec",
    "type": "potok",
    "latitude": 49.3,
    "longitude": 20.04
  },
  {
    "name": "Wielki Kowaniec",
    "type": "potok",
    "latitude": 49.3,
    "longitude": 20.04
  },
  {
    "name": "Gajna Skała",
    "type": "góra, szczyt",
    "latitude": 49.25,
    "longitude": 20.11
  },
  {
    "name": "Kozi Grzbiet",
    "type": "grań",
    "latitude": 49.14,
    "longitude": 19.54
  },
  {
    "name": "Kozi Korytarz",
    "type": "jaskinia, grota",
    "latitude": 49.15,
    "longitude": 19.57
  },
  {
    "name": "Kozi Wierch",
    "type": "góra, szczyt",
    "latitude": 49.13,
    "longitude": 20.01
  },
  {
    "name": "Kozia Dolinka",
    "type": "cyrk lodowcowy",
    "latitude": 49.13,
    "longitude": 20.01
  },
  {
    "name": "Kozia Przełęcz",
    "type": "przełęcz",
    "latitude": 49.13,
    "longitude": 20.01
  },
  {
    "name": "Kozia Przełęcz Wyżnia",
    "type": "przełęcz",
    "latitude": 49.13,
    "longitude": 20.01
  },
  {
    "name": "Koziarczyska",
    "type": "góra, szczyt",
    "latitude": 49.16,
    "longitude": 20.03
  },
  {
    "name": "Koziarski Żleb",
    "type": "żleb",
    "latitude": 49.16,
    "longitude": 20.03
  },
  {
    "name": "Kozie Czuby",
    "type": "góra, szczyt",
    "latitude": 49.13,
    "longitude": 20.01
  },
  {
    "name": "Kozie Percie",
    "type": "grań",
    "latitude": 49.12,
    "longitude": 20.02
  },
  {
    "name": "Kozie Upłazki",
    "type": "zbocze, stok",
    "latitude": 49.14,
    "longitude": 19.53
  },
  {
    "name": "Kozielce",
    "type": "góra, szczyt",
    "latitude": 49.22,
    "longitude": 19.54
  },
  {
    "name": "Kozieniec",
    "type": "góra, szczyt",
    "latitude": 49.21,
    "longitude": 20.08
  },
  {
    "name": "Koziniec",
    "type": "wzgórze, wzniesienie",
    "latitude": 49.2,
    "longitude": 20.07
  },
  {
    "name": "Koziniecki Źleb",
    "type": "żleb",
    "latitude": 49.16,
    "longitude": 19.49
  },
  {
    "name": "Koźliczyna",
    "type": "polana",
    "latitude": 49.33,
    "longitude": 19.12
  },
  {
    "name": "Krajowy",
    "type": "potok",
    "latitude": 49.23,
    "longitude": 20.01
  },
  {
    "name": "Krakowska Piwnica",
    "type": "jaskinia, grota",
    "latitude": 49.14,
    "longitude": 19.52
  },
  {
    "name": "Krakowskie Okno",
    "type": "jaskinia, grota",
    "latitude": 49.14,
    "longitude": 19.52
  },
  {
    "name": "Kraków",
    "type": "wąwóz",
    "latitude": 49.14,
    "longitude": 19.52
  },
  {
    "name": "Kramarzówka",
    "type": "polana",
    "latitude": 49.18,
    "longitude": 20.09
  },
  {
    "name": "Kramlica",
    "type": "skała",
    "latitude": 49.25,
    "longitude": 20.07
  },
  {
    "name": "Krauska",
    "type": "polana",
    "latitude": 49.33,
    "longitude": 20.02
  },
  {
    "name": "Krawców Wierch",
    "type": "góra, szczyt",
    "latitude": 49.28,
    "longitude": 19.13
  },
  {
    "name": "Kręta",
    "type": "polana",
    "latitude": 49.33,
    "longitude": 20.02
  },
  {
    "name": "Krokiew",
    "type": "góra, szczyt",
    "latitude": 49.16,
    "longitude": 19.57
  },
  {
    "name": "Krowi Żleb",
    "type": "żleb",
    "latitude": 49.15,
    "longitude": 19.52
  },
  {
    "name": "Królicza Jama",
    "type": "jaskinia, grota",
    "latitude": 49.14,
    "longitude": 19.55
  },
  {
    "name": "Królowa Grapa",
    "type": "zbocze, stok",
    "latitude": 49.21,
    "longitude": 20.12
  },
  {
    "name": "Królowa Niżnia",
    "type": "hala",
    "latitude": 49.15,
    "longitude": 20.0
  },
  {
    "name": "Królowa Polana",
    "type": "polana",
    "latitude": 49.15,
    "longitude": 20.0
  },
  {
    "name": "Królowa Rówień",
    "type": "hala",
    "latitude": 49.15,
    "longitude": 20.0
  },
  {
    "name": "Królowa Wyżnia",
    "type": "hala",
    "latitude": 49.14,
    "longitude": 20.0
  },
  {
    "name": "Królowe Rówienki",
    "type": "hala",
    "latitude": 49.14,
    "longitude": 20.0
  },
  {
    "name": "Królowski Potok",
    "type": "potok",
    "latitude": 49.21,
    "longitude": 20.1
  },
  {
    "name": "Krówski Żleb",
    "type": "żleb",
    "latitude": 49.14,
    "longitude": 19.56
  },
  {
    "name": "Krucha Szczelina",
    "type": "jaskinia, grota",
    "latitude": 49.14,
    "longitude": 19.54
  },
  {
    "name": "Krupowa",
    "type": "polana",
    "latitude": 49.31,
    "longitude": 20.03
  },
  {
    "name": "Kruźlik",
    "type": "góra, szczyt",
    "latitude": 49.14,
    "longitude": 19.46
  },
  {
    "name": "Kryta",
    "type": "wzgórze, wzniesienie",
    "latitude": 49.15,
    "longitude": 19.48
  },
  {
    "name": "Kryte",
    "type": "potok",
    "latitude": 49.28,
    "longitude": 20.15
  },
  {
    "name": "Krzemionka",
    "type": "skała",
    "latitude": 49.15,
    "longitude": 19.59
  },
  {
    "name": "Krzeptowski Potok",
    "type": "potok",
    "latitude": 49.17,
    "longitude": 19.55
  },
  {
    "name": "Krzesanica",
    "type": "góra, szczyt",
    "latitude": 49.13,
    "longitude": 19.54
  },
  {
    "name": "Krzywań",
    "type": "skała",
    "latitude": 49.16,
    "longitude": 20.02
  },
  {
    "name": "Krzywań Bliższy",
    "type": "potok",
    "latitude": 49.26,
    "longitude": 19.36
  },
  {
    "name": "Krzywy Żleb",
    "type": "żleb",
    "latitude": 49.12,
    "longitude": 19.49
  },
  {
    "name": "Krzyż",
    "type": "góra, szczyt",
    "latitude": 49.14,
    "longitude": 20.01
  },
  {
    "name": "Krzyżne",
    "type": "przełęcz",
    "latitude": 49.13,
    "longitude": 20.02
  },
  {
    "name": "Krzyżowa Góra",
    "type": "góra, szczyt",
    "latitude": 49.22,
    "longitude": 20.16
  },
  {
    "name": "Księża Grapa",
    "type": "góra, szczyt",
    "latitude": 49.3,
    "longitude": 19.5
  },
  {
    "name": "Księża Polana",
    "type": "polana",
    "latitude": 49.18,
    "longitude": 20.09
  },
  {
    "name": "Księży Dział",
    "type": "góra, szczyt",
    "latitude": 49.33,
    "longitude": 19.43
  },